[
  {
    "yelp_id": "mountain-sun-pub-and-brewery-boulder",
    "name": "Mountain Sun",
    "location": {
      "latitude": 40.01916,
      "longitude": -105.2753
    },
    "address": [
      "1535 Pearl St",
      "Boulder, CO 80302"
    ],
    "phone": "3035460886"
  },
  {
    "yelp_id": "j-and-l-distilling-company-boulder",
    "name": "J & L Distilling Company",
    "location": {
      "latitude": 40.0261931164324,
      "longitude": -105.24169089652
    },
    "address": [
      "4843 Pearl St",
      "Boulder, CO 80301"
    ],
    "phone": "7204001907"
  },
  {
    "yelp_id": "dark-horse-boulder",
    "name": "Dark Horse",
    "location": {
      "latitude": 39.9998513,
      "longitude": -105.2552162
    },
    "address": [
      "2922 Baseline Rd",
      "Boulder, CO 80303"
    ],
    "phone": "3034428162"
  },
  {
    "yelp_id": "no-name-bar-boulder",
    "name": "No Name Bar",
    "location": {
      "latitude": 40.0098882749544,
      "longitude": -105.278250668801
    },
    "address": [
      "1325 Broadway Ave",
      "Boulder, CO 80302"
    ]
  },
  {
    "yelp_id": "pearl-street-pub-and-cellar-boulder-2",
    "name": "Pearl Street Pub",
    "location": {
      "latitude": 40.0176427313392,
      "longitude": -105.280774086714
    },
    "address": [
      "1108 Pearl St",
      "Boulder, CO 80302"
    ],
    "phone": "3039399900"
  },
  {
    "yelp_id": "sip-boulder-2",
    "name": "SiP",
    "location": {
      "latitude": 40.0069023,
      "longitude": -105.2579882
    },
    "address": [
      "2810 E College Ave",
      "Ste 3",
      "Boulder, CO 80303"
    ],
    "phone": "3035442000"
  },
  {
    "yelp_id": "southern-sun-pub-and-brewery-boulder",
    "name": "Southern Sun",
    "location": {
      "latitude": 39.984320087832,
      "longitude": -105.249369885828
    },
    "address": [
      "627 S Broadway St",
      "Boulder, CO 80305"
    ],
    "phone": "3035430886"
  },
  {
    "yelp_id": "the-bitter-bar-boulder",
    "name": "The Bitter Bar",
    "location": {
      "latitude": 40.0159731,
      "longitude": -105.2841448
    },
    "address": [
      "835 Walnut St",
      "Boulder, CO 80302"
    ],
    "phone": "3034423050"
  },
  {
    "yelp_id": "the-west-end-tavern-boulder",
    "name": "The West End Tavern",
    "location": {
      "latitude": 40.0170630942428,
      "longitude": -105.283259713121
    },
    "address": [
      "926 Pearl St",
      "Boulder, CO 80302"
    ],
    "phone": "3034443535"
  },
  {
    "yelp_id": "twisted-pine-brewing-company-boulder",
    "name": "Twisted Pine Brewing Company",
    "location": {
      "latitude": 40.0202654,
      "longitude": -105.2511983
    },
    "address": [
      "3201 Walnut St",
      "Boulder, CO 80301"
    ],
    "phone": "3037869270"
  },
  {
    "yelp_id": "j-wells-brewery-boulder",
    "name": "J Wells Brewery",
    "location": {
      "latitude": 40.0237742,
      "longitude": -105.2376878
    },
    "address": [
      "2516 49th St",
      "Ste 5",
      "Boulder, CO 80301"
    ],
    "phone": "3033960384"
  },
  {
    "yelp_id": "upslope-brewing-company-boulder",
    "name": "Upslope Brewing Company",
    "location": {
      "latitude": 40.06262,
      "longitude": -105.27876
    },
    "address": [
      "1501 Lee Hill Rd",
      "Ste 20",
      "Boulder, CO 80304"
    ],
    "phone": "3034492911"
  },
  {
    "yelp_id": "attic-bar-and-bistro-boulder",
    "name": "Attic Bar & Bistro",
    "location": {
      "latitude": 40.0165977478027,
      "longitude": -105.282455444336
    },
    "address": [
      "949 Walnut St",
      "Boulder, CO 80302"
    ],
    "phone": "3034151300"
  },
  {
    "yelp_id": "pmg-boulder-3",
    "name": "PMG",
    "location": {
      "latitude": 40.0178201,
      "longitude": -105.2824649
    },
    "address": [
      "2018 10th St",
      "Boulder, CO 80302"
    ],
    "phone": "3037868585"
  },
  {
    "yelp_id": "boulder-beer-boulder",
    "name": "Boulder Beer",
    "location": {
      "latitude": 40.0266799926758,
      "longitude": -105.247985839844
    },
    "address": [
      "2880 Wilderness Pl",
      "Boulder, CO 80301"
    ],
    "phone": "3034448448"
  },
  {
    "yelp_id": "upslope-brewing-company-flatiron-park-tap-room-boulder-2",
    "name": "Upslope Brewing Company Flatiron Park Tap Room",
    "location": {
      "latitude": 40.0201759338379,
      "longitude": -105.217971801758
    },
    "address": [
      "1898 S Flatiron Ct",
      "Boulder, CO 80301"
    ],
    "phone": "3033961898"
  },
  {
    "yelp_id": "bohemian-biergarten-boulder",
    "name": "Bohemian Biergarten",
    "location": {
      "latitude": 40.0187301635742,
      "longitude": -105.279266357422
    },
    "address": [
      "2017 13th St",
      "Boulder, CO 80302"
    ],
    "phone": "7203288328"
  },
  {
    "yelp_id": "press-play-boulder",
    "name": "Press Play",
    "location": {
      "latitude": 40.017426609993,
      "longitude": -105.28240352869
    },
    "address": [
      "1005 Pearl St",
      "Boulder, CO 80302"
    ],
    "phone": "7205084916"
  },
  {
    "yelp_id": "avery-brewing-boulder-2",
    "name": "Avery Brewing",
    "location": {
      "latitude": 40.06253,
      "longitude": -105.20495
    },
    "address": [
      "4910 Nautilus Ct N",
      "Boulder, CO 80301"
    ],
    "phone": "3034404324"
  },
  {
    "yelp_id": "backcountry-pizza-and-tap-house-boulder",
    "name": "Backcountry Pizza and Tap House",
    "location": {
      "latitude": 40.014866,
      "longitude": -105.26403
    },
    "address": [
      "2319 Arapahoe Ave",
      "Boulder, CO 80302"
    ],
    "phone": "3034494285"
  },
  {
    "yelp_id": "vapor-distillery-boulder",
    "name": "Vapor Distillery",
    "location": {
      "latitude": 40.0182114,
      "longitude": -105.2292328
    },
    "address": [
      "5311 Western Ave",
      "Ste 180",
      "Boulder, CO 80301"
    ],
    "phone": "3039976134"
  },
  {
    "yelp_id": "license-no-1-boulder",
    "name": "License No 1",
    "location": {
      "latitude": 40.019393,
      "longitude": -105.279426
    },
    "address": [
      "2115 13th St",
      "Boulder, CO 80302"
    ]
  },
  {
    "yelp_id": "t-zero-boulder",
    "name": "T- Zero",
    "location": {
      "latitude": 40.0156898,
      "longitude": -105.2825317
    },
    "address": [
      "St Julien Hotel & Spa",
      "900 Walnut St",
      "Boulder, CO 80302"
    ],
    "phone": "7204069696"
  },
  {
    "yelp_id": "west-flanders-brewing-company-boulder",
    "name": "West Flanders Brewing Company",
    "location": {
      "latitude": 40.0180625915527,
      "longitude": -105.28067779541
    },
    "address": [
      "1125 Pearl St",
      "Boulder, CO 80302"
    ],
    "phone": "3034472739"
  },
  {
    "yelp_id": "murphys-south-boulder-3",
    "name": "Murphy's South",
    "location": {
      "latitude": 39.9833532234527,
      "longitude": -105.249701418433
    },
    "address": [
      "657 S Broadway",
      "Boulder, CO 80305"
    ],
    "phone": "3034947626"
  },
  {
    "yelp_id": "the-28th-street-tavern-boulder",
    "name": "The 28th Street Tavern",
    "location": {
      "latitude": 40.027031,
      "longitude": -105.257607
    },
    "address": [
      "2690 28th St",
      "Boulder, CO 80301"
    ],
    "phone": "3039909975"
  },
  {
    "yelp_id": "the-goose-bar-boulder",
    "name": "The Goose Bar",
    "location": {
      "latitude": 40.0096626281738,
      "longitude": -105.27677154541
    },
    "address": [
      "1301 Broadway St",
      "Boulder, CO 80302"
    ],
    "phone": "3034426666"
  },
  {
    "yelp_id": "the-north-end-at-4580-boulder",
    "name": "The North End At 4580",
    "location": {
      "latitude": 40.057586474824,
      "longitude": -105.28188062994
    },
    "address": [
      "4580 Broadway St",
      "Boulder, CO 80304"
    ],
    "phone": "3034481500"
  },
  {
    "yelp_id": "oak-at-fourteenth-boulder",
    "name": "Oak at Fourteenth",
    "location": {
      "latitude": 40.0182304,
      "longitude": -105.2770462
    },
    "address": [
      "1400 Pearl St",
      "Boulder, CO 80302"
    ],
    "phone": "3034443622"
  },
  {
    "yelp_id": "outback-saloon-boulder",
    "name": "Outback Saloon",
    "location": {
      "latitude": 40.031719,
      "longitude": -105.259254
    },
    "address": [
      "3141 28th St",
      "Boulder, CO 80301"
    ],
    "phone": "3034440081"
  },
  {
    "yelp_id": "flagstaff-house-restaurant-boulder-2",
    "name": "Flagstaff House Restaurant",
    "location": {
      "latitude": 40.006037,
      "longitude": -105.293183
    },
    "address": [
      "1138 Flagstaff Rd",
      "Boulder, CO 80302"
    ],
    "phone": "3034424640"
  },
  {
    "yelp_id": "illegal-petes-boulder",
    "name": "Illegal Pete's",
    "location": {
      "latitude": 40.0188186496232,
      "longitude": -105.276328476253
    },
    "address": [
      "1447 Pearl St",
      "Boulder, CO 80302"
    ],
    "phone": "3034403955"
  },
  {
    "yelp_id": "the-sink-boulder",
    "name": "The Sink",
    "location": {
      "latitude": 40.008486,
      "longitude": -105.2765749
    },
    "address": [
      "1165 13th St",
      "Boulder, CO 80302"
    ],
    "phone": "3034447465"
  },
  {
    "yelp_id": "conor-o-neills-boulder",
    "name": "Conor O'Neill's",
    "location": {
      "latitude": 40.017634204082,
      "longitude": -105.27830736635
    },
    "address": [
      "1922 13th St",
      "Boulder, CO 80302"
    ],
    "phone": "3034491922"
  },
  {
    "yelp_id": "the-corner-bar-boulder",
    "name": "The Corner Bar",
    "location": {
      "latitude": 40.0192909713613,
      "longitude": -105.279284412273
    },
    "address": [
      "Hotel Boulderado",
      "2115 13th St",
      "Boulder, CO 80302"
    ],
    "phone": "3034424560"
  },
  {
    "yelp_id": "t-aco-an-urban-taqueria-boulder",
    "name": "T/ACO an Urban Taqueria",
    "location": {
      "latitude": 40.0169907,
      "longitude": -105.2799683
    },
    "address": [
      "1175 Walnut St",
      "Boulder, CO 80302"
    ],
    "phone": "3034439468"
  },
  {
    "yelp_id": "harpos-sports-grill-boulder",
    "name": "Harpo's Sports Grill",
    "location": {
      "latitude": 40.0142517089844,
      "longitude": -105.256851196289
    },
    "address": [
      "2860 Arapahoe Ave",
      "Boulder, CO 80303"
    ],
    "phone": "3034449464"
  },
  {
    "yelp_id": "lazy-dog-sports-bar-and-grill-boulder",
    "name": "Lazy Dog Sports Bar & Grill",
    "location": {
      "latitude": 40.0180778503418,
      "longitude": -105.277519226074
    },
    "address": [
      "1346 Pearl St",
      "Boulder, CO 80302"
    ],
    "phone": "3034403355"
  },
  {
    "yelp_id": "bru-handbuilt-ales-and-eats-boulder",
    "name": "Bru Handbuilt Ales & Eats",
    "location": {
      "latitude": 40.0140233407771,
      "longitude": -105.230366199318
    },
    "address": [
      "5290 Arapahoe Ave",
      "Boulder, CO 80303"
    ],
    "phone": "7206385193"
  },
  {
    "yelp_id": "sundown-saloon-boulder",
    "name": "Sundown Saloon",
    "location": {
      "latitude": 40.01751,
      "longitude": -105.28025
    },
    "address": [
      "1136 Pearl St Bsmt",
      "Boulder, CO 80302"
    ],
    "phone": "3034494987"
  },
  {
    "yelp_id": "under-the-sun-eatery-and-taphouse-boulder-2",
    "name": "Under the Sun Eatery & Taphouse",
    "location": {
      "latitude": 39.9843398731453,
      "longitude": -105.249504078805
    },
    "address": [
      "Table Mesa Shopping Center",
      "627 S Broadway",
      "Boulder, CO 80305"
    ],
    "phone": "3039276921"
  },
  {
    "yelp_id": "the-kitchen-next-door-boulder-3",
    "name": "The Kitchen Next Door",
    "location": {
      "latitude": 40.0178,
      "longitude": -105.28191
    },
    "address": [
      "1035 Pearl St",
      "Boulder, CO 80302"
    ],
    "phone": "7205428159"
  },
  {
    "yelp_id": "fate-brewing-company-boulder-2",
    "name": "FATE Brewing Company",
    "location": {
      "latitude": 40.01507,
      "longitude": -105.24579
    },
    "address": [
      "1600 38th St",
      "Ste 100",
      "Boulder, CO 80301"
    ],
    "phone": "3034493283"
  },
  {
    "yelp_id": "tahona-tequila-bistro-boulder",
    "name": "Tahona Tequila Bistro",
    "location": {
      "latitude": 40.017796,
      "longitude": -105.281941
    },
    "address": [
      "1035 Pearl St",
      "Boulder, CO 80302"
    ],
    "phone": "3039389600"
  },
  {
    "yelp_id": "the-buff-restaurant-boulder",
    "name": "The Buff Restaurant",
    "location": {
      "latitude": 40.017245,
      "longitude": -105.2602784
    },
    "address": [
      "2600 Canyon Blvd",
      "Boulder, CO 80302"
    ],
    "phone": "3034429150"
  },
  {
    "yelp_id": "hungry-toad-boulder",
    "name": "Hungry Toad",
    "location": {
      "latitude": 40.02434,
      "longitude": -105.28241
    },
    "address": [
      "2543 Broadway St",
      "Boulder, CO 80304"
    ],
    "phone": "3034425012"
  },
  {
    "yelp_id": "brasserie-ten-ten-boulder",
    "name": "Brasserie Ten Ten",
    "location": {
      "latitude": 40.0166854858398,
      "longitude": -105.282073974609
    },
    "address": [
      "1011 Walnut St",
      "Boulder, CO 80302"
    ],
    "phone": "3039981010"
  },
  {
    "yelp_id": "jai-ho-bolder-boulder",
    "name": "Jai Ho Bolder",
    "location": {
      "latitude": 40.0197367,
      "longitude": -105.2586049
    },
    "address": [
      "1915 28th St",
      "Boulder, CO 80301"
    ],
    "phone": "3034445151"
  },
  {
    "yelp_id": "foolish-craigs-boulder",
    "name": "Foolish Craig's",
    "location": {
      "latitude": 40.0193252563477,
      "longitude": -105.27449798584
    },
    "address": [
      "1611 Pearl St",
      "Boulder, CO 80302"
    ],
    "phone": "3032479383"
  },
  {
    "yelp_id": "the-kitchen-boulder-boulder",
    "name": "The Kitchen Boulder",
    "location": {
      "latitude": 40.0176626,
      "longitude": -105.2816859
    },
    "address": [
      "1039 Pearl St",
      "Boulder, CO 80302"
    ],
    "phone": "3035445973"
  },
  {
    "yelp_id": "walrus-boulder",
    "name": "Walrus",
    "location": {
      "latitude": 40.0168609619141,
      "longitude": -105.28125
    },
    "address": [
      "1911 11th St",
      "Boulder, CO 80302"
    ],
    "phone": "3034439902"
  },
  {
    "yelp_id": "riffs-urban-fare-boulder",
    "name": "Riffs Urban Fare",
    "location": {
      "latitude": 40.0177307,
      "longitude": -105.2808337
    },
    "address": [
      "1115 Pearl St",
      "Boulder, CO 80302"
    ],
    "phone": "3034406699"
  },
  {
    "yelp_id": "poshsplat-boulder",
    "name": "PoshSplat",
    "location": {
      "latitude": 40.01834,
      "longitude": -105.27618
    },
    "address": [
      "1468 Pearl St",
      "Ste 120",
      "Boulder, CO 80302"
    ],
    "phone": "3034427674"
  },
  {
    "yelp_id": "bramble-and-hare-boulder",
    "name": "Bramble & Hare",
    "location": {
      "latitude": 40.0175819,
      "longitude": -105.2783203
    },
    "address": [
      "1970 13th St",
      "Boulder, CO 80302"
    ],
    "phone": "3034449110"
  },
  {
    "yelp_id": "walnut-brewery-boulder",
    "name": "Walnut Brewery",
    "location": {
      "latitude": 40.0170211791992,
      "longitude": -105.280464172363
    },
    "address": [
      "1123 Walnut St",
      "Boulder, CO 80302"
    ],
    "phone": "3034471345"
  },
  {
    "yelp_id": "blackbelly-market-boulder-2",
    "name": "Blackbelly Market",
    "location": {
      "latitude": 40.0151138305664,
      "longitude": -105.227523803711
    },
    "address": [
      "1606 Conestoga St",
      "Boulder, CO 80301"
    ],
    "phone": "3032471000"
  },
  {
    "yelp_id": "shine-restaurant-and-gathering-place-boulder",
    "name": "Shine Restaurant & Gathering Place",
    "location": {
      "latitude": 40.0187905132771,
      "longitude": -105.278949514031
    },
    "address": [
      "2027 13th St",
      "Boulder, CO 80302"
    ],
    "phone": "3034490120"
  },
  {
    "yelp_id": "salt-the-bistro-boulder",
    "name": "SALT the Bistro",
    "location": {
      "latitude": 40.017868,
      "longitude": -105.281586
    },
    "address": [
      "1047 Pearl St",
      "Boulder, CO 80302"
    ],
    "phone": "3034447258"
  },
  {
    "yelp_id": "aji-boulder-2",
    "name": "Aji",
    "location": {
      "latitude": 40.0190594047308,
      "longitude": -105.274572148919
    },
    "address": [
      "1601 Pearl St",
      "Boulder, CO 80302"
    ],
    "phone": "3034423464"
  },
  {
    "yelp_id": "illegal-petes-boulder-5",
    "name": "Illegal Pete's",
    "location": {
      "latitude": 40.0078315734863,
      "longitude": -105.275970458984
    },
    "address": [
      "1124 13th St",
      "Boulder, CO 80302"
    ],
    "phone": "3034443055"
  },
  {
    "yelp_id": "zeal-boulder",
    "name": "Zeal",
    "location": {
      "latitude": 40.0191574,
      "longitude": -105.2731628
    },
    "address": [
      "1710 Pearl St",
      "Boulder, CO 80302"
    ],
    "phone": "7207086309"
  },
  {
    "yelp_id": "amaro-drinkery-italia-boulder",
    "name": "Amaro Drinkery Italia",
    "location": {
      "latitude": 40.0366592,
      "longitude": -105.2590408
    },
    "address": [
      "2785 Iris Ave",
      "Boulder, CO 80304"
    ],
    "phone": "3034435100"
  },
  {
    "yelp_id": "murphys-north-boulder-2",
    "name": "Murphy's North",
    "location": {
      "latitude": 40.0365944,
      "longitude": -105.2601471
    },
    "address": [
      "2731 Iris Ave",
      "Boulder, CO 80304"
    ],
    "phone": "3034494473"
  },
  {
    "yelp_id": "rocky-flats-lounge-boulder",
    "name": "Rocky Flats Lounge",
    "location": {
      "latitude": 39.90094,
      "longitude": -105.2422
    },
    "address": [
      "11229 Hwy 93",
      "Boulder, CO 80303"
    ],
    "phone": "3034994242"
  },
  {
    "yelp_id": "cafe-blue-boulder",
    "name": "Cafe Blue",
    "location": {
      "latitude": 40.0702857971191,
      "longitude": -105.201644897461
    },
    "address": [
      "5280 Spine Rd",
      "Boulder, CO 80301"
    ],
    "phone": "3035304345"
  },
  {
    "yelp_id": "zolo-grill-boulder-4",
    "name": "Zolo Grill",
    "location": {
      "latitude": 40.015062,
      "longitude": -105.260474
    },
    "address": [
      "2525 Arapahoe Ave",
      "Unit H1",
      "Boulder, CO 80302"
    ],
    "phone": "3034490444"
  },
  {
    "yelp_id": "my-handle-bar-boulder",
    "name": "My Handle Bar",
    "location": {
      "latitude": 40.0182399898767,
      "longitude": -105.273070111871
    },
    "address": [
      "17th and Walnut",
      "Boulder, CO 80302"
    ],
    "phone": "7204310119"
  },
  {
    "yelp_id": "black-cat-bistro-boulder",
    "name": "Black Cat Bistro",
    "location": {
      "latitude": 40.0175791,
      "longitude": -105.2783202
    },
    "address": [
      "1964 13th St",
      "Boulder, CO 80302"
    ],
    "phone": "3034445500"
  },
  {
    "yelp_id": "chophouse-and-tavern-boulder-2",
    "name": "Chophouse & Tavern",
    "location": {
      "latitude": 40.0165176391602,
      "longitude": -105.282859802246
    },
    "address": [
      "921 Walnut St",
      "Boulder, CO 80302"
    ],
    "phone": "3034431188"
  },
  {
    "yelp_id": "the-greenbriar-inn-boulder",
    "name": "The Greenbriar Inn",
    "location": {
      "latitude": 40.1321868896484,
      "longitude": -105.282913208008
    },
    "address": [
      "8735 N Foothills Hwy",
      "Boulder, CO 80302"
    ],
    "phone": "3034407979"
  },
  {
    "yelp_id": "the-connection-boulder",
    "name": "The Connection",
    "location": {
      "latitude": 40.0070431,
      "longitude": -105.2720438
    },
    "address": [
      "University Memorial Center, CU-Boulder",
      "1669 Euclid Ave",
      "Boulder, CO 80309"
    ],
    "phone": "3037352695"
  },
  {
    "yelp_id": "the-hookah-house-boulder",
    "name": "The Hookah House",
    "location": {
      "latitude": 40.00999,
      "longitude": -105.27708
    },
    "address": [
      "1325 Broadway St",
      "Ste 215",
      "Boulder, CO 80302"
    ],
    "phone": "3034440804"
  },
  {
    "yelp_id": "mateo-boulder",
    "name": "Mateo",
    "location": {
      "latitude": 40.02001953125,
      "longitude": -105.271141052246
    },
    "address": [
      "1837 Pearl St",
      "Boulder, CO 80302"
    ],
    "phone": "3034437766"
  },
  {
    "yelp_id": "boulder-cork-boulder",
    "name": "Boulder Cork",
    "location": {
      "latitude": 40.034586,
      "longitude": -105.2541619
    },
    "address": [
      "3295 30th St",
      "Boulder, CO 80301"
    ],
    "phone": "3034439505"
  },
  {
    "yelp_id": "bjs-restaurant-and-brewhouse-boulder-2",
    "name": "BJ's Restaurant & Brewhouse",
    "location": {
      "latitude": 40.017743,
      "longitude": -105.258103
    },
    "address": [
      "1690 28th St",
      "Boulder, CO 80301"
    ],
    "phone": "3034405200"
  },
  {
    "yelp_id": "12-degree-brewing-louisville",
    "name": "12 Degree Brewing",
    "location": {
      "latitude": 39.9782742293595,
      "longitude": -105.131889007667
    },
    "address": [
      "820 Main St",
      "Ste 2",
      "Louisville, CO 80027"
    ],
    "phone": "7206381623"
  },
  {
    "yelp_id": "sanitas-brewing-co-boulder",
    "name": "Sanitas Brewing Co.",
    "location": {
      "latitude": 40.0211971893828,
      "longitude": -105.247504255162
    },
    "address": [
      "3550 Frontier Ave",
      "Ste A",
      "Boulder, CO 80301"
    ],
    "phone": "3034424130"
  },
  {
    "yelp_id": "arugula-bar-e-ristorante-boulder",
    "name": "Arugula Bar E Ristorante",
    "location": {
      "latitude": 40.0366592,
      "longitude": -105.2590408
    },
    "address": [
      "2785 Iris Ave",
      "Boulder, CO 80304"
    ],
    "phone": "3034435100"
  },
  {
    "yelp_id": "caffe-sole-boulder-2",
    "name": "Caffe Sole",
    "location": {
      "latitude": 39.9841881,
      "longitude": -105.2488861
    },
    "address": [
      "637 S Broadway St",
      "Ste R",
      "Boulder, CO 80305"
    ],
    "phone": "3034992985"
  },
  {
    "yelp_id": "teds-montana-grill-boulder",
    "name": "Ted's Montana Grill",
    "location": {
      "latitude": 40.0193282961845,
      "longitude": -105.273261889815
    },
    "address": [
      "1701 Pearl St",
      "Boulder, CO 80302"
    ],
    "phone": "3034495546"
  },
  {
    "yelp_id": "ruebens-burger-bistro-boulder",
    "name": "Rueben's Burger Bistro",
    "location": {
      "latitude": 40.0162913650274,
      "longitude": -105.279373303056
    },
    "address": [
      "1800 Broadway",
      "Ste 150",
      "Boulder, CO 80302"
    ],
    "phone": "3034435000"
  },
  {
    "yelp_id": "wild-woods-brewery-boulder",
    "name": "Wild Woods Brewery",
    "location": {
      "latitude": 40.0163349509239,
      "longitude": -105.227353200316
    },
    "address": [
      "5460 Conestoga Ct.",
      "Boulder, CO 80301"
    ],
    "phone": "3034841465"
  },
  {
    "yelp_id": "lyfe-kitchen-boulder",
    "name": "LYFE Kitchen",
    "location": {
      "latitude": 40.0187759399414,
      "longitude": -105.274124145508
    },
    "address": [
      "1600 Pearl St",
      "Boulder, CO 80302"
    ],
    "phone": "3032450950"
  },
  {
    "yelp_id": "jills-restaurant-boulder",
    "name": "Jill's Restaurant",
    "location": {
      "latitude": 40.01575,
      "longitude": -105.282565
    },
    "address": [
      "St Julien Hotel & Spa",
      "900 Walnut St",
      "Boulder, CO 80302"
    ],
    "phone": "7204067399"
  },
  {
    "yelp_id": "american-legion-post-10-boulder",
    "name": "American Legion Post 10",
    "location": {
      "latitude": 40.0604934692383,
      "longitude": -105.273292541504
    },
    "address": [
      "4760 28th St",
      "Boulder, CO 80301"
    ],
    "phone": "3034429551"
  },
  {
    "yelp_id": "the-lounge-boulder",
    "name": "The Lounge",
    "location": {
      "latitude": 40.0190842151642,
      "longitude": -105.277529284358
    },
    "address": [
      "2028 14th St",
      "Boulder, CO 80302"
    ]
  },
  {
    "yelp_id": "peace-pipe-hookah-lounge-boulder-2",
    "name": "Peace Pipe Hookah Lounge",
    "location": {
      "latitude": 40.0088522583246,
      "longitude": -105.276294127107
    },
    "address": [
      "1209 13th St",
      "Boulder, CO 80302"
    ],
    "phone": "3034494307"
  },
  {
    "yelp_id": "chautauqua-dining-hall-boulder",
    "name": "Chautauqua Dining Hall",
    "location": {
      "latitude": 39.9999313,
      "longitude": -105.281929
    },
    "address": [
      "900 Baseline Rd",
      "Boulder, CO 80302"
    ],
    "phone": "3034403776"
  },
  {
    "yelp_id": "luckys-cafe-boulder",
    "name": "Lucky's Cafe",
    "location": {
      "latitude": 40.0475197,
      "longitude": -105.2817078
    },
    "address": [
      "3980 Broadway St.",
      "Unit 107",
      "Boulder, CO 80304"
    ],
    "phone": "3034445007"
  },
  {
    "yelp_id": "boulder-theater-boulder",
    "name": "Boulder Theater",
    "location": {
      "latitude": 40.01914,
      "longitude": -105.2771999
    },
    "address": [
      "2032 14th St",
      "Boulder, CO 80302"
    ],
    "phone": "3037867030"
  },
  {
    "yelp_id": "dots-diner-boulder-2",
    "name": "Dot's Diner",
    "location": {
      "latitude": 40.0275110453367,
      "longitude": -105.258334055543
    },
    "address": [
      "2716 28th St",
      "Boulder, CO 80301"
    ],
    "phone": "3034491323"
  },
  {
    "yelp_id": "the-post-brewing-company-lafayette",
    "name": "The Post Brewing Company",
    "location": {
      "latitude": 39.994517,
      "longitude": -105.091283
    },
    "address": [
      "105 W Emma St",
      "Lafayette, CO 80026"
    ],
    "phone": "3035932066"
  },
  {
    "yelp_id": "gold-hill-inn-gold-hill",
    "name": "Gold Hill Inn",
    "location": {
      "latitude": 40.0633583068848,
      "longitude": -105.408866882324
    },
    "address": [
      "401 Main St",
      "Gold Hill, CO 80302"
    ],
    "phone": "3034436461"
  },
  {
    "yelp_id": "the-very-nice-brewing-company-nederland",
    "name": "The Very Nice Brewing Company",
    "location": {
      "latitude": 39.9599981136085,
      "longitude": -105.509740185921
    },
    "address": [
      "20 Lakeview Dr",
      "Ste 112",
      "Nederland, CO 80466"
    ],
    "phone": "3032583770"
  },
  {
    "yelp_id": "finkel-and-garf-brewing-company-boulder",
    "name": "Finkel & Garf Brewing Company",
    "location": {
      "latitude": 40.0739599507025,
      "longitude": -105.202441100528
    },
    "address": [
      "5455 Spine Rd",
      "Boulder, CO 80301"
    ],
    "phone": "7203796042"
  },
  {
    "yelp_id": "hooked-on-hookah-boulder-2",
    "name": "Hooked On Hookah",
    "location": {
      "latitude": 40.0215347406175,
      "longitude": -105.25487601757
    },
    "address": [
      "2065 30th St",
      "Boulder, CO 80301"
    ],
    "phone": "3034424364"
  },
  {
    "yelp_id": "fox-theatre-boulder",
    "name": "Fox Theatre",
    "location": {
      "latitude": 40.00803,
      "longitude": -105.27658
    },
    "address": [
      "1135 13th St",
      "Boulder, CO 80302"
    ],
    "phone": "3034470095"
  },
  {
    "yelp_id": "johnnys-cigar-bar-boulder",
    "name": "Johnny's Cigar Bar",
    "location": {
      "latitude": 40.0164985656738,
      "longitude": -105.278793334961
    },
    "address": [
      "1801 13th St",
      "Boulder, CO 80305"
    ],
    "phone": "3034490884"
  },
  {
    "yelp_id": "the-colorado-keg-house-broomfield",
    "name": "The Colorado Keg House",
    "location": {
      "latitude": 39.9058970094278,
      "longitude": -105.087304003537
    },
    "address": [
      "8001 Arista Pl",
      "Ste 110",
      "Broomfield, CO 80021"
    ],
    "phone": "3034666677"
  },
  {
    "yelp_id": "bogeys-eatery-and-spirits-boulder",
    "name": "Bogey's Eatery & Spirits",
    "location": {
      "latitude": 40.0707,
      "longitude": -105.20088
    },
    "address": [
      "6525 Gunpark Dr",
      "Ste 380",
      "Boulder, CO 80301"
    ],
    "phone": "3035307423"
  },
  {
    "yelp_id": "absinthe-house-boulder",
    "name": "Absinthe House",
    "location": {
      "latitude": 40.0169792,
      "longitude": -105.280632
    },
    "address": [
      "1109 Walnut St",
      "Boulder, CO 80302"
    ],
    "phone": "3034438600"
  },
  {
    "yelp_id": "the-empire-lounge-and-restaurant-louisville-2",
    "name": "The Empire Lounge & Restaurant",
    "location": {
      "latitude": 39.9781545,
      "longitude": -105.1318972
    },
    "address": [
      "816 Main St",
      "Louisville, CO 80027"
    ],
    "phone": "3036652521"
  },
  {
    "yelp_id": "niwot-tavern-niwot",
    "name": "Niwot Tavern",
    "location": {
      "latitude": 40.1007537841797,
      "longitude": -105.168121337891
    },
    "address": [
      "7960 Niwot Rd",
      "Ste D12",
      "Niwot, CO 80503"
    ],
    "phone": "3036520200"
  },
  {
    "yelp_id": "the-cheesecake-factory-boulder",
    "name": "The Cheesecake Factory",
    "location": {
      "latitude": 40.0187606811523,
      "longitude": -105.277046203613
    },
    "address": [
      "1401 Pearl St",
      "Ste 100",
      "Boulder, CO 80302"
    ],
    "phone": "3035460222"
  },
  {
    "yelp_id": "left-hand-brewing-company-longmont",
    "name": "Left Hand Brewing Company",
    "location": {
      "latitude": 40.15831,
      "longitude": -105.11532
    },
    "address": [
      "1265 Boston Ave",
      "Longmont, CO 80501"
    ],
    "phone": "3037720258"
  },
  {
    "yelp_id": "henrys-bar-and-grill-louisville",
    "name": "Henry's Bar & Grill",
    "location": {
      "latitude": 39.9770899,
      "longitude": -105.13129
    },
    "address": [
      "935 Pine St",
      "Louisville, CO 80027"
    ],
    "phone": "3036659966"
  },
  {
    "yelp_id": "turleys-boulder",
    "name": "Turley's",
    "location": {
      "latitude": 40.02282,
      "longitude": -105.258
    },
    "address": [
      "2805 Pearl St",
      "Boulder, CO 80301"
    ],
    "phone": "3034422800"
  },
  {
    "yelp_id": "the-tap-room-broomfield",
    "name": "The Tap Room",
    "location": {
      "latitude": 39.927581,
      "longitude": -105.118888
    },
    "address": [
      "Omni Interlocken Resort",
      "500 Interlocken Blvd",
      "Broomfield, CO 80021"
    ],
    "phone": "3034386600"
  },
  {
    "yelp_id": "protein-bar-boulder",
    "name": "Protein Bar",
    "location": {
      "latitude": 40.0193373,
      "longitude": -105.2565265
    },
    "address": [
      "1855 29th St",
      "Boulder, CO 80301"
    ],
    "phone": "3034401028"
  },
  {
    "yelp_id": "front-range-brewing-company-lafayette",
    "name": "Front Range Brewing Company",
    "location": {
      "latitude": 39.9854989089183,
      "longitude": -105.094615795611
    },
    "address": [
      "400 W South Boulder Rd",
      "Ste 1650",
      "Lafayette, CO 80026"
    ],
    "phone": "3033390767"
  },
  {
    "yelp_id": "native-foods-cafe-boulder",
    "name": "Native Foods Cafe",
    "location": {
      "latitude": 40.0167835503817,
      "longitude": -105.256260037422
    },
    "address": [
      "1675 29th St",
      "Ste 1272",
      "Boulder, CO 80301"
    ],
    "phone": "3034420213"
  },
  {
    "yelp_id": "leaf-vegetarian-restaurant-boulder",
    "name": "Leaf Vegetarian Restaurant",
    "location": {
      "latitude": 40.0192909,
      "longitude": -105.2746201
    },
    "address": [
      "2010 16th St",
      "Boulder, CO 80302"
    ],
    "phone": "3034421485"
  },
  {
    "yelp_id": "bourbon-street-seafood-and-chophouse-louisville-3",
    "name": "Bourbon Street Seafood & Chophouse",
    "location": {
      "latitude": 39.9653630049831,
      "longitude": -105.16219295558
    },
    "address": [
      "328 McCaslin Blvd",
      "Louisville, CO 80027"
    ],
    "phone": "3039550845"
  },
  {
    "yelp_id": "freshii-boulder",
    "name": "Freshii",
    "location": {
      "latitude": 40.0102233886719,
      "longitude": -105.277069091797
    },
    "address": [
      "1335 Broadway",
      "Unit A",
      "Boulder, CO 80302"
    ],
    "phone": "7205417345"
  },
  {
    "yelp_id": "asher-brewing-company-boulder",
    "name": "Asher Brewing Company",
    "location": {
      "latitude": 40.0593491,
      "longitude": -105.2059631
    },
    "address": [
      "4699 Nautilus Ct",
      "Ste 104",
      "Boulder, CO 80301"
    ],
    "phone": "3035301381"
  },
  {
    "yelp_id": "walnut-cafe-boulder",
    "name": "Walnut Cafe",
    "location": {
      "latitude": 40.0202549,
      "longitude": -105.2527276
    },
    "address": [
      "3073 Walnut St",
      "Boulder, CO 80301"
    ],
    "phone": "3034472315"
  },
  {
    "yelp_id": "oskar-blues-brewery-longmont-2",
    "name": "Oskar Blues Brewery",
    "location": {
      "latitude": 40.1389274597168,
      "longitude": -105.122589111328
    },
    "address": [
      "1800 Pike Rd",
      "Ste B",
      "Longmont, CO 80504"
    ],
    "phone": "3037761914"
  },
  {
    "yelp_id": "the-burns-pub-and-restaurant-broomfield-2",
    "name": "The Burns Pub & Restaurant",
    "location": {
      "latitude": 39.90928,
      "longitude": -105.10012
    },
    "address": [
      "9009 Metro Airport Ave",
      "Broomfield, CO 80021"
    ],
    "phone": "3034694008"
  },
  {
    "yelp_id": "havana-manor-cigar-lounge-louisville-3",
    "name": "Havana Manor Cigar Lounge",
    "location": {
      "latitude": 39.9617701023817,
      "longitude": -105.166253149509
    },
    "address": [
      "1124 W Dillon Rd",
      "Ste 4",
      "Louisville, CO 80027"
    ],
    "phone": "3036666134"
  },
  {
    "yelp_id": "pôr-wine-house-louisville-2",
    "name": "/pôr/ wine house",
    "location": {
      "latitude": 39.9784642,
      "longitude": -105.1321058
    },
    "address": [
      "836 1/2 Main St",
      "Louisville, CO 80027"
    ],
    "phone": "7206661386"
  },
  {
    "yelp_id": "2020-food-wine-bar-longmont-2",
    "name": "2020 Food + Wine Bar",
    "location": {
      "latitude": 40.1351852416992,
      "longitude": -105.103149414062
    },
    "address": [
      "2020 Ionosphere St",
      "Unit A",
      "Longmont, CO 80504"
    ],
    "phone": "7204913578"
  },
  {
    "yelp_id": "mudrocks-tap-and-tavern-louisville",
    "name": "Mudrock's Tap & Tavern",
    "location": {
      "latitude": 39.9871249,
      "longitude": -105.136311
    },
    "address": [
      "585 E South Boulder Rd",
      "Louisville, CO 80027"
    ],
    "phone": "7208907900"
  },
  {
    "yelp_id": "madera-grill-louisville",
    "name": "Madera Grill",
    "location": {
      "latitude": 39.97818,
      "longitude": -105.1324999
    },
    "address": [
      "817 Main St",
      "Louisville, CO 80027"
    ],
    "phone": "3036666224"
  },
  {
    "yelp_id": "the-roost-longmont",
    "name": "The Roost",
    "location": {
      "latitude": 40.1684074401855,
      "longitude": -105.102088928223
    },
    "address": [
      "526 Main St",
      "Longmont, CO 80501"
    ],
    "phone": "3038273380"
  },
  {
    "yelp_id": "millers-grille-lafayette",
    "name": "Miller's Grille",
    "location": {
      "latitude": 39.9979502506077,
      "longitude": -105.090692639351
    },
    "address": [
      "103 S Public Rd",
      "Lafayette, CO 80026"
    ],
    "phone": "7207469649"
  },
  {
    "yelp_id": "tibets-restaurant-and-bar-louisville",
    "name": "Tibet's Restaurant & Bar",
    "location": {
      "latitude": 39.966091811657,
      "longitude": -105.163589045405
    },
    "address": [
      "321 S McCaslin Blvd",
      "Ste A",
      "Louisville, CO 80027"
    ],
    "phone": "3036652557"
  },
  {
    "yelp_id": "village-tavern-broomfield",
    "name": "Village Tavern",
    "location": {
      "latitude": 39.9319443764799,
      "longitude": -105.134460926056
    },
    "address": [
      "Village At Flatiron Crossing",
      "1 W Flatiron Crossing Dr, Suite 100",
      "Broomfield, CO 80021"
    ],
    "phone": "7208876900"
  },
  {
    "yelp_id": "the-old-man-broomfield",
    "name": "The Old Man",
    "location": {
      "latitude": 39.91485,
      "longitude": -105.04346
    },
    "address": [
      "4381 W 120th Ave",
      "Broomfield, CO 80020"
    ],
    "phone": "7205364821"
  },
  {
    "yelp_id": "twin-peaks-broomfield-2",
    "name": "Twin Peaks",
    "location": {
      "latitude": 39.9312782287598,
      "longitude": -105.122291564941
    },
    "address": [
      "299 E. Flatiron Crossing Dr",
      "Broomfield, CO 80021"
    ],
    "phone": "3034693825"
  },
  {
    "yelp_id": "twenty-brew-taphouse-westminster",
    "name": "Twenty Brew TapHouse",
    "location": {
      "latitude": 39.898792,
      "longitude": -105.053718
    },
    "address": [
      "11187 Sheridan Blvd",
      "Ste 10",
      "Westminster, CO 80020"
    ],
    "phone": "9702345675"
  },
  {
    "yelp_id": "oskar-blues-longmont",
    "name": "Oskar Blues",
    "location": {
      "latitude": 40.138988494873,
      "longitude": -105.131614685059
    },
    "address": [
      "1555 S Hover Rd",
      "Longmont, CO 80501"
    ],
    "phone": "3034859400"
  },
  {
    "yelp_id": "waterloo-louisville-2",
    "name": "Waterloo",
    "location": {
      "latitude": 39.9780312,
      "longitude": -105.1324997
    },
    "address": [
      "809 S Main St",
      "Louisville, CO 80027"
    ],
    "phone": "3039932094"
  },
  {
    "yelp_id": "taco-junky-boulder",
    "name": "Taco Junky",
    "location": {
      "latitude": 40.008258,
      "longitude": -105.276573
    },
    "address": [
      "1149 13th St",
      "Boulder, CO 80302"
    ],
    "phone": "3034432300"
  },
  {
    "yelp_id": "inks-and-drinks-broomfield",
    "name": "Inks & Drinks",
    "location": {
      "latitude": 39.9874281,
      "longitude": -105.1298633
    },
    "address": [
      "1 West Flatiron Crossing Drive",
      "#104",
      "Broomfield, CO 80021"
    ],
    "phone": "3034699250"
  },
  {
    "yelp_id": "the-peaks-bar-and-grill-lafayette",
    "name": "The Peaks Bar & Grill",
    "location": {
      "latitude": 40.0026349833312,
      "longitude": -105.123869605658
    },
    "address": [
      "2300 Indian Peaks Trl",
      "Lafayette, CO 80026"
    ],
    "phone": "3036669597"
  },
  {
    "yelp_id": "rembrandt-yard-boulder",
    "name": "Rembrandt Yard",
    "location": {
      "latitude": 40.01943,
      "longitude": -105.27882
    },
    "address": [
      "1301 Spruce St",
      "Boulder, CO 80302"
    ],
    "phone": "3033012972"
  },
  {
    "yelp_id": "cyclhops-longmont",
    "name": "Cyclhops",
    "location": {
      "latitude": 40.151180267334,
      "longitude": -105.153999328613
    },
    "address": [
      "600 S Airport Rd",
      "Longmont, CO 80503"
    ],
    "phone": "3037762453"
  },
  {
    "yelp_id": "murphys-tap-house-louisville",
    "name": "Murphy's Tap House",
    "location": {
      "latitude": 39.9621315002441,
      "longitude": -105.165214538574
    },
    "address": [
      "585 S McCaslin Blvd",
      "Louisville, CO 80027"
    ],
    "phone": "7206124616"
  },
  {
    "yelp_id": "740-front-louisville",
    "name": "740 Front",
    "location": {
      "latitude": 39.9776382446289,
      "longitude": -105.130485534668
    },
    "address": [
      "740 Front St",
      "Louisville, CO 80027"
    ],
    "phone": "7205191972"
  },
  {
    "yelp_id": "zoosters-pub-and-pool-hall-broomfield",
    "name": "Zoosters Pub & Pool Hall",
    "location": {
      "latitude": 39.920654296875,
      "longitude": -105.086982727051
    },
    "address": [
      "300 Nickel St",
      "Broomfield, CO 80020"
    ],
    "phone": "3034659298"
  },
  {
    "yelp_id": "night-owl-lounge-broomfield",
    "name": "Night Owl Lounge",
    "location": {
      "latitude": 39.9217147827148,
      "longitude": -105.092262268066
    },
    "address": [
      "2000 W Midway Blvd",
      "Broomfield, CO 80020"
    ],
    "phone": "3034608928"
  },
  {
    "yelp_id": "buffalo-wild-wings-superior",
    "name": "Buffalo Wild Wings",
    "location": {
      "latitude": 39.9573809782767,
      "longitude": -105.170475264378
    },
    "address": [
      "404 Marshall Rd",
      "Superior, CO 80027"
    ],
    "phone": "3034979464"
  },
  {
    "yelp_id": "bitto-bistro-westminster",
    "name": "Bitto Bistro",
    "location": {
      "latitude": 39.963017477451,
      "longitude": -104.99239828045
    },
    "address": [
      "Orchard Town Center",
      "14697 Delaware St",
      "Westminster, CO 80023"
    ],
    "phone": "3034524900"
  },
  {
    "yelp_id": "larkburger-boulder",
    "name": "Larkburger",
    "location": {
      "latitude": 40.0149600628523,
      "longitude": -105.259666910983
    },
    "address": [
      "2525 Arapahoe Ave",
      "Boulder, CO 80302"
    ],
    "phone": "3034441487"
  },
  {
    "yelp_id": "vindication-brewing-boulder",
    "name": "Vindication Brewing",
    "location": {
      "latitude": 40.076775,
      "longitude": -105.1930579
    },
    "address": [
      "6880 Winchester Cir",
      "Ste F",
      "Boulder, CO 80301"
    ],
    "phone": "3035300642"
  },
  {
    "yelp_id": "miners-tavern-erie",
    "name": "Miners Tavern",
    "location": {
      "latitude": 40.0493317,
      "longitude": -105.0478134
    },
    "address": [
      "524 Briggs St",
      "Erie, CO 80516"
    ],
    "phone": "3038289997"
  },
  {
    "yelp_id": "dairy-center-for-the-arts-boulder",
    "name": "Dairy Center For the Arts",
    "location": {
      "latitude": 40.0195083618164,
      "longitude": -105.26123046875
    },
    "address": [
      "2590 Walnut St",
      "Ste 1",
      "Boulder, CO 80302"
    ],
    "phone": "3034407826"
  },
  {
    "yelp_id": "wild-mountain-smokehouse-and-brewery-nederland",
    "name": "Wild Mountain Smokehouse & Brewery",
    "location": {
      "latitude": 39.9618384987116,
      "longitude": -105.509242638946
    },
    "address": [
      "70 E 1st St",
      "Nederland, CO 80466"
    ],
    "phone": "3032589453"
  },
  {
    "yelp_id": "blues-and-greens-boulder",
    "name": "Blues & Greens",
    "location": {
      "latitude": 40.0025291,
      "longitude": -105.2575607
    },
    "address": [
      "800 28th St",
      "Boulder, CO 80303"
    ],
    "phone": "7209747775"
  },
  {
    "yelp_id": "92nd-avenue-tavern-broomfield",
    "name": "92nd Avenue Tavern",
    "location": {
      "latitude": 39.86413,
      "longitude": -105.08347
    },
    "address": [
      "7701 W 92nd Ave",
      "Broomfield, CO 80021"
    ],
    "phone": "3034223276"
  },
  {
    "yelp_id": "underground-hookah-springs-boulder-2",
    "name": "Underground Hookah Springs",
    "location": {
      "latitude": 40.0088522583246,
      "longitude": -105.276294127107
    },
    "address": [
      "1209 13th St",
      "Boulder, CO 80302"
    ],
    "phone": "7204067350"
  },
  {
    "yelp_id": "the-tasty-weasel-longmont",
    "name": "The Tasty Weasel",
    "location": {
      "latitude": 40.1389274597168,
      "longitude": -105.122589111328
    },
    "address": [
      "1800 Pike Rd",
      "Longmont, CO 80501"
    ],
    "phone": "3037761914"
  },
  {
    "yelp_id": "the-arvada-tavern-arvada",
    "name": "The Arvada Tavern",
    "location": {
      "latitude": 39.8005027582,
      "longitude": -105.08165875755
    },
    "address": [
      "5707 Olde Wadsworth Blvd",
      "Arvada, CO 80002"
    ],
    "phone": "3036906269"
  },
  {
    "yelp_id": "golden-moon-speakeasy-golden",
    "name": "Golden Moon Speakeasy",
    "location": {
      "latitude": 39.7557724267244,
      "longitude": -105.222425311804
    },
    "address": [
      "1111 Miner's Alley",
      "Golden, CO 80401"
    ],
    "phone": "7206381155"
  },
  {
    "yelp_id": "steamers-coffeehouse-and-jacks-bar-and-grill-arvada-3",
    "name": "Steamer's Coffeehouse and Jack's Bar & Grill",
    "location": {
      "latitude": 39.8494797,
      "longitude": -105.155777
    },
    "address": [
      "8565 Five Parks Dr",
      "Arvada, CO 80005"
    ],
    "phone": "3034567624"
  },
  {
    "yelp_id": "apeizza-e-vino-lafayette-2",
    "name": "Apeizza E Vino",
    "location": {
      "latitude": 39.99598,
      "longitude": -105.09018
    },
    "address": [
      "300 S Public Rd",
      "Lafayette, CO 80026"
    ],
    "phone": "7207086835"
  },
  {
    "yelp_id": "etown-boulder-3",
    "name": "eTown",
    "location": {
      "latitude": 40.020236,
      "longitude": -105.275482
    },
    "address": [
      "1535 Spruce St",
      "Ste 302",
      "Boulder, CO 80302"
    ],
    "phone": "3034438696"
  },
  {
    "yelp_id": "the-speakeasy-longmont",
    "name": "The Speakeasy",
    "location": {
      "latitude": 40.1641779,
      "longitude": -105.1026955
    },
    "address": [
      "301 Main St",
      "Longmont, CO 80501"
    ],
    "phone": "3037096777"
  },
  {
    "yelp_id": "jws-restaurant-and-lounge-boulder",
    "name": "JW's Restaurant & Lounge",
    "location": {
      "latitude": 40.016548,
      "longitude": -105.260086
    },
    "address": [
      "2660 Canyon Boulevard",
      "Boulder, CO 80302"
    ],
    "phone": "3034408877"
  },
  {
    "yelp_id": "rock-a-billies-arvada",
    "name": "Rock-A-Billies",
    "location": {
      "latitude": 39.8129044,
      "longitude": -105.1362762
    },
    "address": [
      "12363 W 64th Ave",
      "Arvada, CO 80004"
    ],
    "phone": "3034211799"
  },
  {
    "yelp_id": "bout-time-pub-and-grub-arvada",
    "name": "Bout Time Pub & Grub",
    "location": {
      "latitude": 39.842594,
      "longitude": -105.054019
    },
    "address": [
      "5225 W 80th Ave",
      "Arvada, CO 80003"
    ],
    "phone": "3036502729"
  },
  {
    "yelp_id": "wxyz-bar-broomfield",
    "name": "Wxyz Bar",
    "location": {
      "latitude": 39.905434061708,
      "longitude": -105.09003580033
    },
    "address": [
      "Aloft Hotel",
      "8300 Arista Pl",
      "Broomfield, CO 80021"
    ],
    "phone": "3036352000"
  },
  {
    "yelp_id": "the-lazy-dog-erie",
    "name": "The Lazy Dog",
    "location": {
      "latitude": 40.0007362365723,
      "longitude": -105.021759033203
    },
    "address": [
      "3100 Vista Village Dr",
      "Erie, CO 80516"
    ],
    "phone": "3039979886"
  },
  {
    "yelp_id": "the-rear-inn-lounge-westminster",
    "name": "The Rear Inn Lounge",
    "location": {
      "latitude": 39.8421630859375,
      "longitude": -105.05037689209
    },
    "address": [
      "4991 W 80th Ave",
      "Westminster, CO 80030"
    ],
    "phone": "3034264500"
  },
  {
    "yelp_id": "bar-louie-westminster-3",
    "name": "Bar Louie",
    "location": {
      "latitude": 39.890141,
      "longitude": -105.068897
    },
    "address": [
      "10661 Westminster Blvd",
      "Ste 900",
      "Westminster, CO 80020"
    ],
    "phone": "7202143300"
  },
  {
    "yelp_id": "sideways-sports-lounge-westminster-3",
    "name": "Sideways Sports Lounge",
    "location": {
      "latitude": 39.8562185,
      "longitude": -105.099732
    },
    "address": [
      "9134 W 88th Ave",
      "Westminster, CO 80005"
    ],
    "phone": "3034247748"
  },
  {
    "yelp_id": "california-pizza-kitchen-boulder",
    "name": "California Pizza Kitchen",
    "location": {
      "latitude": 40.017618378822,
      "longitude": -105.25703019147
    },
    "address": [
      "1711 29th Street",
      "Ste 1180",
      "Boulder, CO 80301"
    ],
    "phone": "3034403390"
  },
  {
    "yelp_id": "dillingers-bar-and-grill-lafayette",
    "name": "Dillinger's Bar & Grill",
    "location": {
      "latitude": 39.9861441670729,
      "longitude": -105.106130575335
    },
    "address": [
      "1202 Centaur Village Dr",
      "Lafayette, CO 80026"
    ],
    "phone": "3036666979"
  },
  {
    "yelp_id": "ace-hi-tavern-golden",
    "name": "Ace-Hi Tavern",
    "location": {
      "latitude": 39.754833,
      "longitude": -105.221184
    },
    "address": [
      "1216 Washington Ave",
      "Golden, CO 80402"
    ],
    "phone": "3032799043"
  },
  {
    "yelp_id": "the-bluegrass-coffee-and-bourbon-lounge-arvada",
    "name": "The Bluegrass Coffee & Bourbon Lounge",
    "location": {
      "latitude": 39.7995379,
      "longitude": -105.0796076
    },
    "address": [
      "7415 Grandview Ave",
      "Arvada, CO 80002"
    ],
    "phone": "7204763950"
  },
  {
    "yelp_id": "mike-o-shays-restaurant-and-ale-house-longmont",
    "name": "Mike O'Shay's Restaurant & Ale House",
    "location": {
      "latitude": 40.1679267883301,
      "longitude": -105.102088928223
    },
    "address": [
      "512 Main St",
      "Longmont, CO 80501"
    ],
    "phone": "3037720252"
  },
  {
    "yelp_id": "cheese-importers-longmont-2",
    "name": "Cheese Importers",
    "location": {
      "latitude": 40.16057,
      "longitude": -105.10319
    },
    "address": [
      "103 Main St",
      "Longmont, CO 80501"
    ],
    "phone": "3037729599"
  },
  {
    "yelp_id": "benders-bar-and-grill-westminster",
    "name": "Bender's Bar & Grill",
    "location": {
      "latitude": 39.891566,
      "longitude": -105.068393
    },
    "address": [
      "10710 Westminster Blvd",
      "Westminster, CO 80020"
    ],
    "phone": "3039745215"
  },
  {
    "yelp_id": "treppedas-niwot",
    "name": "Treppeda's",
    "location": {
      "latitude": 40.1021371,
      "longitude": -105.1706071
    },
    "address": [
      "300 2nd Ave",
      "Niwot, CO 80544"
    ],
    "phone": "3036521606"
  },
  {
    "yelp_id": "the-glenn-northglenn",
    "name": "The Glenn",
    "location": {
      "latitude": 39.8984604,
      "longitude": -104.9659424
    },
    "address": [
      "11140 Irma Dr",
      "Northglenn, CO 80233"
    ],
    "phone": "3032551400"
  },
  {
    "yelp_id": "bad-daddys-burger-bar-northglenn-northglenn",
    "name": "Bad Daddy's Burger Bar - Northglenn",
    "location": {
      "latitude": 39.913703,
      "longitude": -104.986171
    },
    "address": [
      "100 E 120th Ave",
      "Ste B - 120",
      "Northglenn, CO 80233"
    ],
    "phone": "3034523999"
  },
  {
    "yelp_id": "oskar-blues-grill-and-brew-lyons-2",
    "name": "Oskar Blues Grill & Brew",
    "location": {
      "latitude": 40.22433,
      "longitude": -105.26789
    },
    "address": [
      "303 Main St",
      "Lyons, CO 80540"
    ],
    "phone": "3038236685"
  },
  {
    "yelp_id": "gordon-biersch-brewery-restaurant-broomfield-2",
    "name": "Gordon Biersch Brewery Restaurant",
    "location": {
      "latitude": 39.9312228085965,
      "longitude": -105.134900037253
    },
    "address": [
      "1 W Flatiron Cir",
      "Broomfield, CO 80021"
    ],
    "phone": "7208872991"
  },
  {
    "yelp_id": "the-fat-shack-boulder",
    "name": "The Fat Shack",
    "location": {
      "latitude": 40.0076065,
      "longitude": -105.2761868
    },
    "address": [
      "1110 13th St",
      "Boulder, CO 80302"
    ],
    "phone": "3034422610"
  },
  {
    "yelp_id": "cb-and-potts-broomfield-5",
    "name": "CB & Potts",
    "location": {
      "latitude": 39.92824,
      "longitude": -105.13396
    },
    "address": [
      "555 Zang St",
      "Broomfield, CO 80020"
    ],
    "phone": "7208873383"
  },
  {
    "yelp_id": "still-cellars-longmont",
    "name": "Still Cellars",
    "location": {
      "latitude": 40.1557333767414,
      "longitude": -105.110689178109
    },
    "address": [
      "1115 Colorado Ave",
      "Longmont, CO 80501"
    ],
    "phone": "7202046064"
  },
  {
    "yelp_id": "meritage-broomfield",
    "name": "Meritage",
    "location": {
      "latitude": 39.927581,
      "longitude": -105.118888
    },
    "address": [
      "500 Interlocken Blvd",
      "Broomfield, CO 80021"
    ],
    "phone": "3034386600"
  },
  {
    "yelp_id": "flatz-restaurant-broomfield",
    "name": "Flatz Restaurant",
    "location": {
      "latitude": 39.9268531799316,
      "longitude": -105.129776000977
    },
    "address": [
      "500 Flatiron Boulevard",
      "Broomfield, CO 80021"
    ],
    "phone": "7205873025"
  },
  {
    "yelp_id": "four-noses-brewing-company-broomfield",
    "name": "Four Noses Brewing Company",
    "location": {
      "latitude": 39.9062806470292,
      "longitude": -105.098472602557
    },
    "address": [
      "8855 W 116 Cir",
      "Broomfield, CO 80021"
    ],
    "phone": "7204602797"
  },
  {
    "yelp_id": "the-old-mine-cidery-and-brewpub-erie",
    "name": "The Old Mine - Cidery & Brewpub",
    "location": {
      "latitude": 40.0490951538086,
      "longitude": -105.047798156738
    },
    "address": [
      "500 Briggs St",
      "Erie, CO 80516"
    ],
    "phone": "3039050620"
  },
  {
    "yelp_id": "crossroads-tavern-lafayette",
    "name": "Crossroads Tavern",
    "location": {
      "latitude": 39.986864849925,
      "longitude": -105.094479247928
    },
    "address": [
      "400 W S Boulder Rd",
      "Lafayette, CO 80026"
    ],
    "phone": "3039264254"
  },
  {
    "yelp_id": "nissis-entertainment-venue-and-event-center-lafayette",
    "name": "Nissi's Entertainment Venue & Event Center",
    "location": {
      "latitude": 40.0110415,
      "longitude": -105.128278
    },
    "address": [
      "2675 Northpark Dr",
      "Lafayette, CO 80026"
    ],
    "phone": "3036652757"
  },
  {
    "yelp_id": "zaika-indian-cuisine-broomfield",
    "name": "Zaika Indian Cuisine",
    "location": {
      "latitude": 39.920475645097,
      "longitude": -105.087102184696
    },
    "address": [
      "300 Nickel St",
      "Ste 19",
      "Broomfield, CO 80020"
    ],
    "phone": "7208870400"
  },
  {
    "yelp_id": "odd13-brewing-lafayette",
    "name": "Odd13 Brewing",
    "location": {
      "latitude": 39.9982836842537,
      "longitude": -105.087860226631
    },
    "address": [
      "301 E Simpson St",
      "Lafayette, CO 80026"
    ],
    "phone": "3039974164"
  },
  {
    "yelp_id": "sweetwater-station-broomfield",
    "name": "Sweetwater Station",
    "location": {
      "latitude": 39.87613,
      "longitude": -105.09648
    },
    "address": [
      "9975 Wadsworth Parkway",
      "Broomfield, CO 80021"
    ],
    "phone": "3034201004"
  },
  {
    "yelp_id": "l-atelier-boulder-2",
    "name": "L'Atelier",
    "location": {
      "latitude": 40.019369199872,
      "longitude": -105.273060724139
    },
    "address": [
      "1739 Pearl St",
      "Boulder, CO 80302"
    ],
    "phone": "3034427233"
  },
  {
    "yelp_id": "fox-and-hound-smokehouse-and-tavern-westminster",
    "name": "Fox and Hound Smokehouse & Tavern",
    "location": {
      "latitude": 39.9123153686523,
      "longitude": -105.047660827637
    },
    "address": [
      "4750 W 120th Ave",
      "Ste 900",
      "Westminster, CO 80020"
    ],
    "phone": "3034647366"
  },
  {
    "yelp_id": "hoffbrau-bar-and-grill-westminster-2",
    "name": "Hoffbrau Bar & Grill",
    "location": {
      "latitude": 39.862125,
      "longitude": -105.0808
    },
    "address": [
      "9110 Wadsworth Pkwy",
      "Westminster, CO 80021"
    ],
    "phone": "3034227755"
  },
  {
    "yelp_id": "gravity-brewing-louisville",
    "name": "Gravity Brewing",
    "location": {
      "latitude": 39.9761391,
      "longitude": -105.128479
    },
    "address": [
      "1150 Pine St",
      "Ste B",
      "Louisville, CO 80027"
    ],
    "phone": "3035440746"
  },
  {
    "yelp_id": "lodos-bar-and-grill-westminster",
    "name": "Lodo's Bar & Grill",
    "location": {
      "latitude": 39.88608,
      "longitude": -105.02694
    },
    "address": [
      "3053 W 104th Ave",
      "Westminster, CO 80031"
    ],
    "phone": "3036358025"
  },
  {
    "yelp_id": "aspen-lodge-bar-and-grill-westminster",
    "name": "Aspen Lodge Bar & Grill",
    "location": {
      "latitude": 39.867485,
      "longitude": -105.087877
    },
    "address": [
      "8125 W 94th Ave",
      "Westminster, CO 80021"
    ],
    "phone": "3034258833"
  },
  {
    "yelp_id": "the-wreck-room-saloon-federal-heights",
    "name": "The Wreck Room Saloon",
    "location": {
      "latitude": 39.86384,
      "longitude": -105.01878
    },
    "address": [
      "2695 W 92nd Ave",
      "Federal Heights, CO 80260"
    ],
    "phone": "3034120257"
  },
  {
    "yelp_id": "95a-bistro-and-sushi-lafayette",
    "name": "95A Bistro and Sushi",
    "location": {
      "latitude": 40.0137823413619,
      "longitude": -105.127707123756
    },
    "address": [
      "1381 Forest Park Cir",
      "Lafayette, CO 80026"
    ],
    "phone": "3036653080"
  },
  {
    "yelp_id": "old-chicago-longmont",
    "name": "Old Chicago",
    "location": {
      "latitude": 40.1475296020508,
      "longitude": -105.123458862305
    },
    "address": [
      "1805 Industrial Cir",
      "Longmont, CO 80501"
    ],
    "phone": "3036517000"
  },
  {
    "yelp_id": "super-mini-walnut-cafe-lafayette",
    "name": "Super Mini Walnut Cafe",
    "location": {
      "latitude": 40.01377,
      "longitude": -105.13234
    },
    "address": [
      "2770 Arapahoe Rd",
      "Ste 116",
      "Lafayette, CO 80026"
    ],
    "phone": "7203289208"
  },
  {
    "yelp_id": "dunn-gaherins-newton",
    "name": "Dunn Gaherins",
    "location": {
      "latitude": 42.3127913475037,
      "longitude": -71.2241593748331
    },
    "address": [
      "344 Elliot St",
      "Newton, MA 02456"
    ],
    "phone": "6175276271"
  },
  {
    "yelp_id": "buffs-pub-newton",
    "name": "Buff's Pub",
    "location": {
      "latitude": 42.357028455369,
      "longitude": -71.186550871825
    },
    "address": [
      "317 Washington St",
      "Newton, MA 02458"
    ],
    "phone": "6173329134"
  },
  {
    "yelp_id": "terry-o-reillys-irish-pub-newton",
    "name": "Terry O'Reilly's Irish Pub",
    "location": {
      "latitude": 42.3300680252321,
      "longitude": -71.1916100978851
    },
    "address": [
      "45 Union St",
      "Newton, MA 02459"
    ],
    "phone": "6179649275"
  },
  {
    "yelp_id": "cook-newton",
    "name": "COOK",
    "location": {
      "latitude": 42.3518567,
      "longitude": -71.2069643
    },
    "address": [
      "825 Washington St",
      "Newton, MA 02460"
    ],
    "phone": "6179642665"
  },
  {
    "yelp_id": "brewers-coalition-newton",
    "name": "Brewer's Coalition",
    "location": {
      "latitude": 42.3492338158521,
      "longitude": -71.2067097875435
    },
    "address": [
      "344 Walnut St",
      "Newton, MA 02460"
    ],
    "phone": "6179647600"
  },
  {
    "yelp_id": "social-restaurant-and-bar-newton",
    "name": "Social Restaurant & Bar",
    "location": {
      "latitude": 42.3567887,
      "longitude": -71.1865284
    },
    "address": [
      "320 Washington St",
      "Newton, MA 02458"
    ],
    "phone": "6172444800"
  },
  {
    "yelp_id": "west-street-tavern-and-restaurant-newton",
    "name": "West Street Tavern & Restaurant",
    "location": {
      "latitude": 42.3603355139494,
      "longitude": -71.2009267508984
    },
    "address": [
      "7 West St",
      "Newton, MA 02458"
    ],
    "phone": "6177950883"
  },
  {
    "yelp_id": "union-street-newton-3",
    "name": "Union Street",
    "location": {
      "latitude": 42.3298575729132,
      "longitude": -71.1921820789576
    },
    "address": [
      "107R Union St",
      "Newton, MA 02459"
    ],
    "phone": "6179646684"
  },
  {
    "yelp_id": "four-spoons-thai-inspired-cuisine-and-bar-newton",
    "name": "Four Spoons Thai Inspired Cuisine & Bar",
    "location": {
      "latitude": 42.33008,
      "longitude": -71.1934799
    },
    "address": [
      "796 Beacon St",
      "Newton, MA 02459"
    ],
    "phone": "6173325888"
  },
  {
    "yelp_id": "mick-morgans-newton",
    "name": "Mick Morgan's",
    "location": {
      "latitude": 42.3133698,
      "longitude": -71.2117615
    },
    "address": [
      "118 Needham St",
      "Newton, MA 02464"
    ],
    "phone": "6177950136"
  },
  {
    "yelp_id": "comedor-newton",
    "name": "Comedor",
    "location": {
      "latitude": 42.3299477795152,
      "longitude": -71.1939065014881
    },
    "address": [
      "105 Union St",
      "Newton, MA 02459"
    ],
    "phone": "8574040260"
  },
  {
    "yelp_id": "tommy-doyles-newton",
    "name": "Tommy Doyle's",
    "location": {
      "latitude": 42.3608394,
      "longitude": -71.2007717
    },
    "address": [
      "349 Watertown St",
      "Newton, MA 02458"
    ],
    "phone": "6177957201"
  },
  {
    "yelp_id": "sycamore-newton",
    "name": "Sycamore",
    "location": {
      "latitude": 42.330604927028,
      "longitude": -71.1917033039405
    },
    "address": [
      "755 Beacon St",
      "Newton, MA 02459"
    ],
    "phone": "6172444445"
  },
  {
    "yelp_id": "bokx-109-american-prime-newton",
    "name": "BOKX 109 American Prime",
    "location": {
      "latitude": 42.334671,
      "longitude": -71.2534332
    },
    "address": [
      "Indigo Hotel",
      "399 Grove St",
      "Newton, MA 02462"
    ],
    "phone": "6174543399"
  },
  {
    "yelp_id": "the-local-newton",
    "name": "The Local",
    "location": {
      "latitude": 42.34846,
      "longitude": -71.22983
    },
    "address": [
      "1391 Washington St",
      "Newton, MA 02465"
    ],
    "phone": "6173402160"
  },
  {
    "yelp_id": "hopsters-newton-2",
    "name": "Hopsters",
    "location": {
      "latitude": 42.3582641780376,
      "longitude": -71.1847872287035
    },
    "address": [
      "292 Ctr St",
      "Newton, MA 02458"
    ],
    "phone": "6179160752"
  },
  {
    "yelp_id": "lumiere-newton",
    "name": "Lumiere",
    "location": {
      "latitude": 42.3494793,
      "longitude": -71.2266165
    },
    "address": [
      "1293 Washington St",
      "Newton, MA 02465"
    ],
    "phone": "6172449199"
  },
  {
    "yelp_id": "the-gaff-waltham",
    "name": "The Gaff",
    "location": {
      "latitude": 42.3681742697954,
      "longitude": -71.2374946475029
    },
    "address": [
      "467 Moody St",
      "Waltham, MA 02453"
    ],
    "phone": "7812095600"
  },
  {
    "yelp_id": "farmstead-table-newton",
    "name": "Farmstead Table",
    "location": {
      "latitude": 42.3296183,
      "longitude": -71.1926864
    },
    "address": [
      "71 Union St",
      "Newton, MA 02459"
    ],
    "phone": "6179286000"
  },
  {
    "yelp_id": "echo-bridge-restaurant-newton",
    "name": "Echo Bridge Restaurant",
    "location": {
      "latitude": 42.3126250505447,
      "longitude": -71.2245704233646
    },
    "address": [
      "1068 Chestnut St",
      "Newton, MA 02456"
    ],
    "phone": "6179697092"
  },
  {
    "yelp_id": "paddys-west-newton-2",
    "name": "Paddy's",
    "location": {
      "latitude": 42.3493881,
      "longitude": -71.2297974
    },
    "address": [
      "95 Elm St",
      "West Newton, MA 02465"
    ],
    "phone": "6179656444"
  },
  {
    "yelp_id": "o-haras-food-and-spirits-newton-highlands",
    "name": "O'Hara's Food & Spirits",
    "location": {
      "latitude": 42.3211096,
      "longitude": -71.2058315
    },
    "address": [
      "1185 Walnut St",
      "Newton Highlands, MA 02461"
    ],
    "phone": "6179656785"
  },
  {
    "yelp_id": "schwingys-waltham",
    "name": "Schwingy's",
    "location": {
      "latitude": 42.3743667057296,
      "longitude": -71.2365974485874
    },
    "address": [
      "77 City Point",
      "Waltham, MA 02118"
    ],
    "phone": "7817957308"
  },
  {
    "yelp_id": "the-publick-house-brookline",
    "name": "The Publick House",
    "location": {
      "latitude": 42.33889447942,
      "longitude": -71.1384385087266
    },
    "address": [
      "1648 Beacon St",
      "Brookline, MA 02445"
    ],
    "phone": "6172772880"
  },
  {
    "yelp_id": "fit-zs-bar-and-grille-watertown",
    "name": "Fit Z's Bar and Grille",
    "location": {
      "latitude": 42.3709755,
      "longitude": -71.1949768
    },
    "address": [
      "451 Main St",
      "Watertown, MA 02472"
    ],
    "phone": "6179233969"
  },
  {
    "yelp_id": "the-biltmore-bar-and-grille-newton-upper-falls-3",
    "name": "The Biltmore Bar & Grille",
    "location": {
      "latitude": 42.3092689365149,
      "longitude": -71.2212773412466
    },
    "address": [
      "1205 Chestnut St",
      "Newton Upper Falls, MA 02464"
    ],
    "phone": "6175272550"
  },
  {
    "yelp_id": "the-washington-square-tavern-brookline",
    "name": "The Washington Square Tavern",
    "location": {
      "latitude": 42.339123,
      "longitude": -71.135212
    },
    "address": [
      "714 Washington St",
      "Brookline, MA 02445"
    ],
    "phone": "6172328989"
  },
  {
    "yelp_id": "barcelona-brookline-brookline-3",
    "name": "Barcelona Brookline",
    "location": {
      "latitude": 42.3387152,
      "longitude": -71.1389332
    },
    "address": [
      "1700 Beacon St",
      "Brookline, MA 02446"
    ],
    "phone": "6172648900"
  },
  {
    "yelp_id": "deep-ellum-allston",
    "name": "Deep Ellum",
    "location": {
      "latitude": 42.3537889122963,
      "longitude": -71.1370251327753
    },
    "address": [
      "477 Cambridge St",
      "Allston/Brighton",
      "Allston, MA 02134"
    ],
    "phone": "6177872337"
  },
  {
    "yelp_id": "rox-diner-newton",
    "name": "Rox Diner",
    "location": {
      "latitude": 42.3496328294277,
      "longitude": -71.2069469690323
    },
    "address": [
      "335 Walnut St",
      "Newton, MA 02460"
    ],
    "phone": "6179161795"
  },
  {
    "yelp_id": "tempo-waltham",
    "name": "Tempo",
    "location": {
      "latitude": 42.3679580688477,
      "longitude": -71.2369537353516
    },
    "address": [
      "474 Moody St",
      "Waltham, MA 02454"
    ],
    "phone": "7818919000"
  },
  {
    "yelp_id": "raider-tavern-watertown-2",
    "name": "Raider Tavern",
    "location": {
      "latitude": 42.377055,
      "longitude": -71.188223
    },
    "address": [
      "208 Waverly Ave",
      "Watertown, MA 02472"
    ],
    "phone": "6177440300"
  },
  {
    "yelp_id": "cigar-and-lounge-watertown",
    "name": "Cigar and Lounge",
    "location": {
      "latitude": 42.3682996630669,
      "longitude": -71.1609511077404
    },
    "address": [
      "56 Dexter Ave",
      "Watertown, MA 02472"
    ],
    "phone": "6173931645"
  },
  {
    "yelp_id": "sunset-grill-and-tap-allston",
    "name": "Sunset Grill & Tap",
    "location": {
      "latitude": 42.35273,
      "longitude": -71.13166
    },
    "address": [
      "130 Brighton Ave",
      "Allston/Brighton",
      "Allston, MA 02134"
    ],
    "phone": "6172541331"
  },
  {
    "yelp_id": "jocos-bar-and-kitchen-waltham",
    "name": "Joco's Bar & Kitchen",
    "location": {
      "latitude": 42.3683486133814,
      "longitude": -71.2373397499323
    },
    "address": [
      "450 Moody St",
      "Waltham, MA 02453"
    ],
    "phone": "7818941300"
  },
  {
    "yelp_id": "harrys-bar-and-grill-brighton",
    "name": "Harry's Bar & Grill",
    "location": {
      "latitude": 42.3482649028301,
      "longitude": -71.1400191485882
    },
    "address": [
      "1430 Commonwealth Ave",
      "Allston/Brighton",
      "Brighton, MA 02135"
    ],
    "phone": "6177389990"
  },
  {
    "yelp_id": "irish-village-brighton",
    "name": "Irish Village",
    "location": {
      "latitude": 42.35485,
      "longitude": -71.14969
    },
    "address": [
      "224 Market St",
      "Brighton, MA 02135"
    ],
    "phone": "6177875427"
  },
  {
    "yelp_id": "donohues-bar-and-grill-watertown",
    "name": "Donohue's Bar and Grill",
    "location": {
      "latitude": 42.3682938,
      "longitude": -71.1576538
    },
    "address": [
      "87 Bigelow Ave",
      "Watertown, MA 02472"
    ],
    "phone": "6179244900"
  },
  {
    "yelp_id": "bistro781-waltham",
    "name": "Bistro781",
    "location": {
      "latitude": 42.3703117,
      "longitude": -71.2368698
    },
    "address": [
      "336 Moody St",
      "Waltham, MA 02453"
    ],
    "phone": "7818990297"
  },
  {
    "yelp_id": "silhouette-lounge-allston",
    "name": "Silhouette Lounge",
    "location": {
      "latitude": 42.3532598465681,
      "longitude": -71.1346171796322
    },
    "address": [
      "200 Brighton Ave",
      "Allston/Brighton",
      "Allston, MA 02134"
    ],
    "phone": "6172064565"
  },
  {
    "yelp_id": "3-squares-craft-kitchen-and-cocktails-needham",
    "name": "3 Squares Craft Kitchen & Cocktails",
    "location": {
      "latitude": 42.2989394,
      "longitude": -71.2319038
    },
    "address": [
      "669 Highland Ave",
      "Needham, MA 02494"
    ],
    "phone": "7814444644"
  },
  {
    "yelp_id": "knotty-pine-newton",
    "name": "Knotty Pine",
    "location": {
      "latitude": 42.3466488718987,
      "longitude": -71.2471881508827
    },
    "address": [
      "295 Auburn St",
      "Newton, MA 02466"
    ],
    "phone": "6175279864"
  },
  {
    "yelp_id": "21-nickels-watertown",
    "name": "21 Nickels",
    "location": {
      "latitude": 42.3681030273438,
      "longitude": -71.1569442749023
    },
    "address": [
      "21 Nichols Ave",
      "Watertown, MA 02472"
    ]
  },
  {
    "yelp_id": "branch-line-watertown",
    "name": "Branch Line",
    "location": {
      "latitude": 42.3636838,
      "longitude": -71.1666722
    },
    "address": [
      "321 Arsenal St",
      "Watertown, MA 02472"
    ],
    "phone": "6174201900"
  },
  {
    "yelp_id": "hops-n-scotch-brookline",
    "name": "Hops N Scotch",
    "location": {
      "latitude": 42.342279921681,
      "longitude": -71.120692058386
    },
    "address": [
      "1306 Beacon St",
      "Coolidge Corner",
      "Brookline, MA 02446"
    ],
    "phone": "6172328808"
  },
  {
    "yelp_id": "great-scott-allston",
    "name": "Great Scott",
    "location": {
      "latitude": 42.350118833711,
      "longitude": -71.130596238899
    },
    "address": [
      "1222 Commonwealth Ave",
      "Allston/Brighton",
      "Allston, MA 02134"
    ],
    "phone": "6175669014"
  },
  {
    "yelp_id": "conleys-pub-and-grille-watertown",
    "name": "Conley's Pub & Grille",
    "location": {
      "latitude": 42.3757843673229,
      "longitude": -71.1572717875242
    },
    "address": [
      "164 Belmont St",
      "Watertown, MA 02472"
    ],
    "phone": "6173930237"
  },
  {
    "yelp_id": "eat-with-jack-o-neill-west-roxbury",
    "name": "Eat with Jack O'Neill",
    "location": {
      "latitude": 42.2859573,
      "longitude": -71.1557312
    },
    "address": [
      "1885 Centre St",
      "West Roxbury",
      "West Roxbury, MA 02132"
    ],
    "phone": "6174692624"
  },
  {
    "yelp_id": "juniper-wellesley",
    "name": "Juniper",
    "location": {
      "latitude": 42.2963113,
      "longitude": -71.295032
    },
    "address": [
      "13 Central St",
      "Wellesley, MA 02482"
    ],
    "phone": "7814466950"
  },
  {
    "yelp_id": "matt-murphys-pub-brookline-2",
    "name": "Matt Murphy's Pub",
    "location": {
      "latitude": 42.3335938900709,
      "longitude": -71.1188960820436
    },
    "address": [
      "14 Harvard St",
      "Brookline Village",
      "Brookline, MA 02445"
    ],
    "phone": "6172320188"
  },
  {
    "yelp_id": "russell-house-tavern-cambridge",
    "name": "Russell House Tavern",
    "location": {
      "latitude": 42.373251,
      "longitude": -71.119303
    },
    "address": [
      "14 JFK St",
      "Harvard Square",
      "Cambridge, MA 02138"
    ],
    "phone": "6175003055"
  },
  {
    "yelp_id": "brendan-behan-pub-jamaica-plain",
    "name": "Brendan Behan Pub",
    "location": {
      "latitude": 42.3219604,
      "longitude": -71.1092682
    },
    "address": [
      "378 Centre St",
      "Jamaica Plain",
      "Jamaica Plain, MA 02130"
    ],
    "phone": "6175225386"
  },
  {
    "yelp_id": "john-brewers-tavern-waltham",
    "name": "John Brewer's Tavern",
    "location": {
      "latitude": 42.3745460510254,
      "longitude": -71.2095642089844
    },
    "address": [
      "39 Main St",
      "Waltham, MA 02453"
    ],
    "phone": "7818949700"
  },
  {
    "yelp_id": "the-regal-beagle-brookline",
    "name": "The Regal Beagle",
    "location": {
      "latitude": 42.3430099,
      "longitude": -71.1233368
    },
    "address": [
      "308 Harvard St",
      "Coolidge Corner",
      "Brookline, MA 02446"
    ],
    "phone": "6177395151"
  },
  {
    "yelp_id": "blue-on-highland-needham",
    "name": "Blue on Highland",
    "location": {
      "latitude": 42.29365,
      "longitude": -71.235
    },
    "address": [
      "882 Highland Ave",
      "Needham, MA 02494"
    ],
    "phone": "7814447001"
  },
  {
    "yelp_id": "devlins-brighton",
    "name": "Devlin's",
    "location": {
      "latitude": 42.34878,
      "longitude": -71.15231
    },
    "address": [
      "332 Washington St",
      "Brighton, MA 02135"
    ],
    "phone": "6177798822"
  },
  {
    "yelp_id": "lulus-allston-boston-4",
    "name": "Lulu's Allston",
    "location": {
      "latitude": 42.3550647,
      "longitude": -71.1341649
    },
    "address": [
      "421 Cambridge St",
      "Allston/Brighton",
      "Boston, MA 02134"
    ],
    "phone": "6177871117"
  },
  {
    "yelp_id": "lone-star-taco-bar-allston",
    "name": "Lone Star Taco Bar",
    "location": {
      "latitude": 42.3537870975064,
      "longitude": -71.1370889224165
    },
    "address": [
      "479 Cambridge St",
      "Allston/Brighton",
      "Allston, MA 02134"
    ],
    "phone": "6177828226"
  },
  {
    "yelp_id": "cherry-tree-bar-and-grille-west-newton",
    "name": "Cherry Tree Bar and Grille",
    "location": {
      "latitude": 42.3490092158318,
      "longitude": -71.2282390147448
    },
    "address": [
      "1349 Washington St",
      "West Newton, MA 02465"
    ],
    "phone": "6179659796"
  },
  {
    "yelp_id": "lincoln-bar-and-grill-boston",
    "name": "Lincoln Bar & Grill",
    "location": {
      "latitude": 42.3588536041826,
      "longitude": -71.1469714343548
    },
    "address": [
      "8 Lincoln St",
      "Boston, MA 02135"
    ],
    "phone": "6177873669"
  },
  {
    "yelp_id": "seasons-52-chestnut-hill",
    "name": "Seasons 52",
    "location": {
      "latitude": 42.3197912255264,
      "longitude": -71.1753079452955
    },
    "address": [
      "220 Boylston St",
      "Chestnut Hill, MA 02467"
    ],
    "phone": "6175581152"
  },
  {
    "yelp_id": "the-squealing-pig-roxbury-crossing",
    "name": "The Squealing Pig",
    "location": {
      "latitude": 42.33475,
      "longitude": -71.10209
    },
    "address": [
      "134 Smith St",
      "Mission Hill",
      "Roxbury Crossing, MA 02120"
    ],
    "phone": "6175666651"
  },
  {
    "yelp_id": "brothers-restaurant-brookline",
    "name": "Brothers Restaurant",
    "location": {
      "latitude": 42.34502,
      "longitude": -71.12693
    },
    "address": [
      "404 Harvard St",
      "Brookline, MA 02446"
    ],
    "phone": "6173836268"
  },
  {
    "yelp_id": "backbar-somerville",
    "name": "backbar",
    "location": {
      "latitude": 42.3797392845154,
      "longitude": -71.0945945978165
    },
    "address": [
      "7 Sanborn Ct",
      "Somerville, MA 02143"
    ],
    "phone": "6177180249"
  },
  {
    "yelp_id": "francos-pizzeria-and-pub-waltham",
    "name": "Franco's Pizzeria and Pub",
    "location": {
      "latitude": 42.3639488,
      "longitude": -71.2384796
    },
    "address": [
      "714-718 Moody St",
      "Waltham, MA 02453"
    ],
    "phone": "7818937775"
  },
  {
    "yelp_id": "cityside-brighton",
    "name": "CitySide",
    "location": {
      "latitude": 42.3362298309803,
      "longitude": -71.150428801775
    },
    "address": [
      "1960 Beacon St",
      "Brighton, MA 02135"
    ],
    "phone": "6175661002"
  },
  {
    "yelp_id": "porter-bellys-pub-brighton",
    "name": "Porter Belly's Pub",
    "location": {
      "latitude": 42.3489251,
      "longitude": -71.152334
    },
    "address": [
      "338 Washington St",
      "Brighton, MA 02135"
    ],
    "phone": "6172543300"
  },
  {
    "yelp_id": "the-last-drop-brighton",
    "name": "The Last Drop",
    "location": {
      "latitude": 42.350329,
      "longitude": -71.1664107
    },
    "address": [
      "596 Washington St",
      "Brighton, MA 02135"
    ],
    "phone": "6177871111"
  },
  {
    "yelp_id": "simpli-bar-and-bites-jamaica-plain",
    "name": "Simpli Bar & Bites",
    "location": {
      "latitude": 42.2968849,
      "longitude": -71.1170531
    },
    "address": [
      "3840 Washington St",
      "Jamaica Plain, MA 02130"
    ],
    "phone": "6175222400"
  },
  {
    "yelp_id": "the-abbey-brookline",
    "name": "The Abbey",
    "location": {
      "latitude": 42.338727403673,
      "longitude": -71.13674593295
    },
    "address": [
      "1657 Beacon St",
      "Brookline, MA 02445"
    ],
    "phone": "6177308040"
  },
  {
    "yelp_id": "the-middle-gray-brookline",
    "name": "The Middle Gray",
    "location": {
      "latitude": 42.3322589975784,
      "longitude": -71.1179523228511
    },
    "address": [
      "6 Station St",
      "Brookline Village",
      "Brookline, MA 02445"
    ],
    "phone": "6176083480"
  },
  {
    "yelp_id": "tavern-in-the-square-allston-3",
    "name": "Tavern In the Square",
    "location": {
      "latitude": 42.3531609,
      "longitude": -71.1323624
    },
    "address": [
      "161 Brighton Ave",
      "Allston/Brighton",
      "Allston, MA 02134"
    ],
    "phone": "6177828100"
  },
  {
    "yelp_id": "shays-pub-and-wine-bar-cambridge",
    "name": "Shays Pub & Wine Bar",
    "location": {
      "latitude": 42.3717754,
      "longitude": -71.1208141
    },
    "address": [
      "58 JFK St",
      "Harvard Square",
      "Cambridge, MA 02138"
    ],
    "phone": "6178649161"
  },
  {
    "yelp_id": "paradise-rock-club-boston",
    "name": "Paradise Rock Club",
    "location": {
      "latitude": 42.35177,
      "longitude": -71.1192632
    },
    "address": [
      "967 Commonwealth Ave",
      "Allston/Brighton",
      "Boston, MA 02215"
    ],
    "phone": "6175628800"
  },
  {
    "yelp_id": "green-briar-restaurant-and-pub-brighton",
    "name": "Green Briar Restaurant & Pub",
    "location": {
      "latitude": 42.3488878,
      "longitude": -71.1514586
    },
    "address": [
      "304 Washington St",
      "Brighton, MA 02135"
    ],
    "phone": "6177894100"
  },
  {
    "yelp_id": "green-street-cambridge",
    "name": "Green Street",
    "location": {
      "latitude": 42.364521,
      "longitude": -71.104195
    },
    "address": [
      "280 Green St",
      "Central Square",
      "Cambridge, MA 02139"
    ],
    "phone": "6178761655"
  },
  {
    "yelp_id": "the-druid-cambridge",
    "name": "The Druid",
    "location": {
      "latitude": 42.37382,
      "longitude": -71.10021
    },
    "address": [
      "1357 Cambridge St",
      "Inman Square",
      "Cambridge, MA 02139"
    ],
    "phone": "6174970965"
  },
  {
    "yelp_id": "park-restaurant-and-bar-cambridge",
    "name": "Park Restaurant & Bar",
    "location": {
      "latitude": 42.3718681,
      "longitude": -71.1208725
    },
    "address": [
      "59 JFK St",
      "Harvard Square",
      "Cambridge, MA 02138"
    ],
    "phone": "6174919851"
  },
  {
    "yelp_id": "the-avenue-allston",
    "name": "The Avenue",
    "location": {
      "latitude": 42.350647,
      "longitude": -71.132208
    },
    "address": [
      "1249 Commonwealth Ave",
      "Allston/Brighton",
      "Allston, MA 02134"
    ],
    "phone": "6179033110"
  },
  {
    "yelp_id": "river-gods-cambridge",
    "name": "River Gods",
    "location": {
      "latitude": 42.3640347,
      "longitude": -71.1087176
    },
    "address": [
      "125 River St",
      "Central Square",
      "Cambridge, MA 02139"
    ],
    "phone": "6175761881"
  },
  {
    "yelp_id": "rogers-pub-wellesley-2",
    "name": "Roger's Pub",
    "location": {
      "latitude": 42.2983177916374,
      "longitude": -71.2641263008118
    },
    "address": [
      "231 Forest St",
      "Wellesley, MA 02481"
    ]
  },
  {
    "yelp_id": "the-abbey-cambridge",
    "name": "The Abbey",
    "location": {
      "latitude": 42.3851057658005,
      "longitude": -71.1191113498644
    },
    "address": [
      "1755 Massachusetts Ave",
      "Porter Square",
      "Cambridge, MA 02140"
    ],
    "phone": "6177144944"
  },
  {
    "yelp_id": "copper-house-tavern-waltham-3",
    "name": "Copper House Tavern",
    "location": {
      "latitude": 42.3977776,
      "longitude": -71.2584229
    },
    "address": [
      "380 Winter St",
      "Waltham, MA 02451"
    ],
    "phone": "7818908989"
  },
  {
    "yelp_id": "toad-cambridge",
    "name": "Toad",
    "location": {
      "latitude": 42.3889043927193,
      "longitude": -71.1197222024202
    },
    "address": [
      "1912 Massachusetts Ave",
      "Porter Square",
      "Cambridge, MA 02140"
    ],
    "phone": "6174974950"
  },
  {
    "yelp_id": "the-capital-grille-chestnut-hill-2",
    "name": "The Capital Grille",
    "location": {
      "latitude": 42.319210523384,
      "longitude": -71.1776752153702
    },
    "address": [
      "250 Boylston St",
      "Chestnut Hill, MA 02467"
    ],
    "phone": "6179281400"
  },
  {
    "yelp_id": "tres-gatos-jamaica-plain",
    "name": "Tres Gatos",
    "location": {
      "latitude": 42.319072,
      "longitude": -71.11164
    },
    "address": [
      "470 Centre St",
      "Jamaica Plain",
      "Jamaica Plain, MA 02130"
    ],
    "phone": "6174774851"
  },
  {
    "yelp_id": "mad-raven-waltham-3",
    "name": "Mad Raven",
    "location": {
      "latitude": 42.376585,
      "longitude": -71.24456
    },
    "address": [
      "841 Main St",
      "Waltham, MA 02451"
    ],
    "phone": "7818948188"
  },
  {
    "yelp_id": "cambridge-common-cambridge",
    "name": "Cambridge Common",
    "location": {
      "latitude": 42.382133040905,
      "longitude": -71.119461647643
    },
    "address": [
      "1667 Massachusetts Ave",
      "Porter Square",
      "Cambridge, MA 02138"
    ],
    "phone": "6175471228"
  },
  {
    "yelp_id": "otto-pizza-boston",
    "name": "OTTO Pizza",
    "location": {
      "latitude": 42.35044,
      "longitude": -71.11526
    },
    "address": [
      "888 Commonwealth Ave",
      "Allston/Brighton",
      "Boston, MA 02215"
    ],
    "phone": "6172320447"
  },
  {
    "yelp_id": "galway-house-jamaica-plain",
    "name": "Galway House",
    "location": {
      "latitude": 42.311373891743,
      "longitude": -71.114338487506
    },
    "address": [
      "710 Centre St",
      "Jamaica Plain",
      "Jamaica Plain, MA 02130"
    ],
    "phone": "6175249677"
  },
  {
    "yelp_id": "ten-tables-cambridge-2",
    "name": "Ten Tables",
    "location": {
      "latitude": 42.3793334960938,
      "longitude": -71.1274337768555
    },
    "address": [
      "5 Craigie Cir",
      "Cambridge, MA 02138"
    ],
    "phone": "6175765444"
  },
  {
    "yelp_id": "hose-trough-tavern-waltham",
    "name": "Hose Trough Tavern",
    "location": {
      "latitude": 42.3704491,
      "longitude": -71.2206116
    },
    "address": [
      "194 Willow St",
      "Waltham, MA 02453"
    ],
    "phone": "7812098615"
  },
  {
    "yelp_id": "the-cellar-cambridge",
    "name": "The Cellar",
    "location": {
      "latitude": 42.36947,
      "longitude": -71.1109199
    },
    "address": [
      "991 Massachusetts Ave",
      "Central Square",
      "Cambridge, MA 02138"
    ],
    "phone": "6178762580"
  },
  {
    "yelp_id": "shoppers-cafe-waltham",
    "name": "Shopper's Cafe",
    "location": {
      "latitude": 42.3638720065355,
      "longitude": -71.2388035655022
    },
    "address": [
      "731 Moody St",
      "Waltham, MA 02453"
    ],
    "phone": "7818931180"
  },
  {
    "yelp_id": "51-lincoln-newton-highlands",
    "name": "51 Lincoln",
    "location": {
      "latitude": 42.321586876578,
      "longitude": -71.2079686329272
    },
    "address": [
      "51 Lincoln St",
      "Newton Highlands, MA 02461"
    ],
    "phone": "6179653100"
  },
  {
    "yelp_id": "napper-tandys-roslindale",
    "name": "Napper Tandy's",
    "location": {
      "latitude": 42.2872889041901,
      "longitude": -71.1273074895144
    },
    "address": [
      "4195 Washington St",
      "Roslindale Village",
      "Roslindale, MA 02131"
    ],
    "phone": "6173238400"
  },
  {
    "yelp_id": "the-draft-allston",
    "name": "The Draft",
    "location": {
      "latitude": 42.3547679185867,
      "longitude": -71.1324962228537
    },
    "address": [
      "34 Harvard Ave",
      "Allston/Brighton",
      "Allston, MA 02134"
    ],
    "phone": "6177839400"
  },
  {
    "yelp_id": "paddys-lunch-cambridge",
    "name": "Paddy's Lunch",
    "location": {
      "latitude": 42.3859481811523,
      "longitude": -71.1311569213867
    },
    "address": [
      "260 Walden St",
      "Cambridge, MA 02138"
    ],
    "phone": "6175478739"
  },
  {
    "yelp_id": "the-hawthorne-boston-2",
    "name": "The Hawthorne",
    "location": {
      "latitude": 42.3486925877382,
      "longitude": -71.0953666879285
    },
    "address": [
      "Hotel Commonwealth",
      "500A Commonwealth Ave",
      "Boston, MA 02215"
    ],
    "phone": "6175329150"
  },
  {
    "yelp_id": "charcoal-guidos-waltham",
    "name": "Charcoal Guido's",
    "location": {
      "latitude": 42.3679556156134,
      "longitude": -71.2373599737291
    },
    "address": [
      "482 Moody St",
      "Waltham, MA 02453"
    ],
    "phone": "7813732733"
  },
  {
    "yelp_id": "the-field-cambridge",
    "name": "The Field",
    "location": {
      "latitude": 42.3657738363216,
      "longitude": -71.1035370826721
    },
    "address": [
      "20 Prospect St",
      "Central Square",
      "Central Square",
      "Cambridge, MA 02139"
    ],
    "phone": "6173547345"
  },
  {
    "yelp_id": "west-on-centre-west-roxbury",
    "name": "West on Centre",
    "location": {
      "latitude": 42.287136434029,
      "longitude": -71.149664475126
    },
    "address": [
      "1732 Centre St",
      "West Roxbury",
      "West Roxbury, MA 02132"
    ],
    "phone": "6173234199"
  },
  {
    "yelp_id": "brick-and-mortar-cambridge-3",
    "name": "Brick & Mortar",
    "location": {
      "latitude": 42.3648491,
      "longitude": -71.102478
    },
    "address": [
      "567 Massachusetts Ave",
      "Central Square",
      "Cambridge, MA 02139"
    ],
    "phone": "6174910016"
  },
  {
    "yelp_id": "sunset-cantina-boston",
    "name": "Sunset Cantina",
    "location": {
      "latitude": 42.35085,
      "longitude": -71.117
    },
    "address": [
      "916 Commonwealth Ave",
      "Allston/Brighton",
      "Boston, MA 02215"
    ],
    "phone": "6177318646"
  },
  {
    "yelp_id": "west-side-lounge-cambridge",
    "name": "West Side Lounge",
    "location": {
      "latitude": 42.3824462890625,
      "longitude": -71.1200790405273
    },
    "address": [
      "1680 Massachusetts Ave",
      "Porter Square",
      "Cambridge, MA 02138"
    ],
    "phone": "6174415566"
  },
  {
    "yelp_id": "o-learys-irish-pub-and-restaurant-brookline",
    "name": "O'Leary's Irish Pub and Restaurant",
    "location": {
      "latitude": 42.3462563,
      "longitude": -71.1072769
    },
    "address": [
      "1010 Beacon St",
      "Brookline, MA 02446"
    ],
    "phone": "6177340049"
  },
  {
    "yelp_id": "roggies-brighton",
    "name": "Roggie's",
    "location": {
      "latitude": 42.3367826,
      "longitude": -71.1515703
    },
    "address": [
      "356 Chestnut Hill Ave",
      "Brighton, MA 02135"
    ],
    "phone": "6175661880"
  },
  {
    "yelp_id": "aeronaut-brewing-company-somerville",
    "name": "Aeronaut Brewing Company",
    "location": {
      "latitude": 42.3819081641583,
      "longitude": -71.1061354726553
    },
    "address": [
      "14 Tyler St",
      "Somerville, MA 02143"
    ],
    "phone": "6179874236"
  },
  {
    "yelp_id": "oberon-cambridge",
    "name": "Oberon",
    "location": {
      "latitude": 42.370948,
      "longitude": -71.1143491
    },
    "address": [
      "2 Arrow St",
      "Harvard Square",
      "Cambridge, MA 02138"
    ],
    "phone": "6175478300"
  },
  {
    "yelp_id": "the-corrib-pub-brookline",
    "name": "The Corrib Pub",
    "location": {
      "latitude": 42.3397790640593,
      "longitude": -71.1208259314299
    },
    "address": [
      "201 Harvard St",
      "Brookline, MA 02446"
    ],
    "phone": "6172328787"
  },
  {
    "yelp_id": "spoke-somerville",
    "name": "Spoke",
    "location": {
      "latitude": 42.3988663296308,
      "longitude": -71.1242484911069
    },
    "address": [
      "89 Holland St",
      "Davis Square",
      "Somerville, MA 02144"
    ],
    "phone": "6177189463"
  },
  {
    "yelp_id": "eugene-o-neills-jamaica-plain",
    "name": "Eugene O'Neill's",
    "location": {
      "latitude": 42.300495,
      "longitude": -71.11274
    },
    "address": [
      "3700 Washington St",
      "Jamaica Plain",
      "Jamaica Plain, MA 02131"
    ],
    "phone": "6175532492"
  },
  {
    "yelp_id": "the-cambridge-queens-head-cambridge",
    "name": "The Cambridge Queen's Head",
    "location": {
      "latitude": 42.3759409246247,
      "longitude": -71.1156291368882
    },
    "address": [
      "Harvard University",
      "45 Quincy St",
      "Harvard Square",
      "Cambridge, MA 02138"
    ],
    "phone": "6174955107"
  },
  {
    "yelp_id": "corner-tavern-boston",
    "name": "Corner Tavern",
    "location": {
      "latitude": 42.3501587,
      "longitude": -71.0894318
    },
    "address": [
      "421 Marlborough St",
      "Back Bay",
      "Boston, MA 02115"
    ],
    "phone": "6172625555"
  },
  {
    "yelp_id": "jake-n-joes-waltham-waltham-2",
    "name": "Jake n JOES - Waltham",
    "location": {
      "latitude": 42.3792365645885,
      "longitude": -71.2627471363299
    },
    "address": [
      "70 Market Place Dr",
      "Waltham, MA 02451"
    ],
    "phone": "7818940169"
  },
  {
    "yelp_id": "the-glenville-stops-boston",
    "name": "The Glenville Stops",
    "location": {
      "latitude": 42.3494633823329,
      "longitude": -71.134942010915
    },
    "address": [
      "87 Glenville Ave",
      "Allston/Brighton",
      "Boston, MA 02134"
    ],
    "phone": "6179033638"
  },
  {
    "yelp_id": "joe-sent-me-waltham",
    "name": "Joe Sent Me",
    "location": {
      "latitude": 42.3764153,
      "longitude": -71.2446823
    },
    "address": [
      "849 Main St",
      "Waltham, MA 02451"
    ],
    "phone": "7818943153"
  },
  {
    "yelp_id": "acapulcos-needham-2",
    "name": "Acapulcos",
    "location": {
      "latitude": 42.30386,
      "longitude": -71.22181
    },
    "address": [
      "1 1st Ave",
      "Needham, MA 02494"
    ],
    "phone": "3392254558"
  },
  {
    "yelp_id": "mary-anns-brighton",
    "name": "Mary Ann's",
    "location": {
      "latitude": 42.3358993530273,
      "longitude": -71.149284362793
    },
    "address": [
      "1937 Beacon St",
      "Brighton, MA 02135"
    ]
  },
  {
    "yelp_id": "bukowski-tavern-boston",
    "name": "Bukowski Tavern",
    "location": {
      "latitude": 42.34726832024,
      "longitude": -71.085402407346
    },
    "address": [
      "50 Dalton St",
      "Back Bay",
      "Boston, MA 02115"
    ],
    "phone": "6174379999"
  },
  {
    "yelp_id": "kellehers-bar-and-grille-roslindale",
    "name": "Kelleher's Bar & Grille",
    "location": {
      "latitude": 42.2941969335079,
      "longitude": -71.1361373215914
    },
    "address": [
      "1410 Centre St",
      "Roslindale",
      "Roslindale, MA 02131"
    ],
    "phone": "6173251222"
  },
  {
    "yelp_id": "playmakers-sports-bar-and-grill-waltham",
    "name": "Playmakers Sports Bar & Grill",
    "location": {
      "latitude": 42.3703428,
      "longitude": -71.2370568
    },
    "address": [
      "342 Moody St",
      "Waltham, MA 02453"
    ],
    "phone": "7816092445"
  },
  {
    "yelp_id": "strip-ts-restaurant-watertown",
    "name": "Strip-T's Restaurant",
    "location": {
      "latitude": 42.3658362,
      "longitude": -71.1657797
    },
    "address": [
      "93 School St",
      "Watertown, MA 02472"
    ],
    "phone": "6179234330"
  },
  {
    "yelp_id": "the-lower-depths-boston",
    "name": "The Lower Depths",
    "location": {
      "latitude": 42.348511,
      "longitude": -71.093849
    },
    "address": [
      "476 Commonwealth Ave",
      "Boston, MA 02115"
    ],
    "phone": "6172666662"
  },
  {
    "yelp_id": "la-catrina-boston",
    "name": "La Catrina",
    "location": {
      "latitude": 42.3430293,
      "longitude": -71.1429371
    },
    "address": [
      "1620 Commonwealth Ave",
      "Boston, MA 02135"
    ],
    "phone": "6173835015"
  },
  {
    "yelp_id": "sunny-boy-brookline",
    "name": "Sunny Boy",
    "location": {
      "latitude": 42.3396416,
      "longitude": -71.1354065
    },
    "address": [
      "1632 Beacon St",
      "Ste 2",
      "Brookline, MA 02446"
    ],
    "phone": "6177391114"
  },
  {
    "yelp_id": "garcia-brogans-waltham-waltham",
    "name": "Garcia Brogan's - Waltham",
    "location": {
      "latitude": 42.3718605,
      "longitude": -71.2363892
    },
    "address": [
      "240 Moody St",
      "Waltham, MA 02453"
    ],
    "phone": "7817908133"
  },
  {
    "yelp_id": "trinas-starlite-lounge-somerville-2",
    "name": "Trina's Starlite Lounge",
    "location": {
      "latitude": 42.374619071059,
      "longitude": -71.101530844105
    },
    "address": [
      "3 Beacon St",
      "Somerville, MA 02143"
    ],
    "phone": "6175760006"
  },
  {
    "yelp_id": "michael-js-waltham",
    "name": "Michael J's",
    "location": {
      "latitude": 42.3701993376017,
      "longitude": -71.246060281992
    },
    "address": [
      "179 Prospect Street",
      "Waltham, MA 02453"
    ],
    "phone": "7818939659"
  },
  {
    "yelp_id": "noir-cambridge",
    "name": "Noir",
    "location": {
      "latitude": 42.3723605275154,
      "longitude": -71.1219383776188
    },
    "address": [
      "1 Bennett St",
      "Harvard Square",
      "Cambridge, MA 02138"
    ],
    "phone": "6176618010"
  },
  {
    "yelp_id": "the-peoples-republik-cambridge",
    "name": "The People's Republik",
    "location": {
      "latitude": 42.36759,
      "longitude": -71.10799
    },
    "address": [
      "876-878 Massachusetts Ave",
      "Central Square",
      "Cambridge, MA 02139"
    ],
    "phone": "6174916969"
  },
  {
    "yelp_id": "the-mission-bar-and-grill-boston",
    "name": "The Mission Bar & Grill",
    "location": {
      "latitude": 42.33375,
      "longitude": -71.10523
    },
    "address": [
      "724 Huntington Ave",
      "Boston, MA 02120"
    ],
    "phone": "6175661244"
  },
  {
    "yelp_id": "the-bus-stop-pub-allston",
    "name": "The Bus Stop Pub",
    "location": {
      "latitude": 42.3632752150297,
      "longitude": -71.1324687302113
    },
    "address": [
      "252 Western Ave",
      "Allston/Brighton",
      "Allston, MA 02134"
    ],
    "phone": "6172544086"
  },
  {
    "yelp_id": "white-horse-tavern-allston",
    "name": "White Horse Tavern",
    "location": {
      "latitude": 42.35258,
      "longitude": -71.13072
    },
    "address": [
      "116 Brighton Ave",
      "Allston/Brighton",
      "Allston, MA 02134"
    ],
    "phone": "6172546633"
  },
  {
    "yelp_id": "red-bird-waltham-2",
    "name": "Red Bird",
    "location": {
      "latitude": 42.3699915,
      "longitude": -71.2371344
    },
    "address": [
      "361 Moody St",
      "Waltham, MA 02453"
    ],
    "phone": "7818915486"
  },
  {
    "yelp_id": "the-cottage-chestnut-hill-chestnut-hill",
    "name": "The Cottage Chestnut Hill",
    "location": {
      "latitude": 42.3218551,
      "longitude": -71.1703857
    },
    "address": [
      "47 Boylston St",
      "Chestnut Hill, MA 02467"
    ],
    "phone": "6179165413"
  },
  {
    "yelp_id": "the-boston-university-pub-boston",
    "name": "The Boston University Pub",
    "location": {
      "latitude": 42.3508415222168,
      "longitude": -71.103645324707
    },
    "address": [
      "225 Bay State Rd",
      "Boston, MA 02115"
    ],
    "phone": "6173533456"
  },
  {
    "yelp_id": "bleacher-bar-boston",
    "name": "Bleacher Bar",
    "location": {
      "latitude": 42.3469855442944,
      "longitude": -71.096686816461
    },
    "address": [
      "Fenway Park",
      "82 Lansdowne St",
      "Fenway",
      "Boston, MA 02228"
    ],
    "phone": "6172622424"
  },
  {
    "yelp_id": "yard-house-boston-fenway",
    "name": "Yard House",
    "location": {
      "latitude": 42.3451975215714,
      "longitude": -71.100436419047
    },
    "address": [
      "126 Brookline Ave",
      "Fenway",
      "Boston-Fenway, MA 02215"
    ],
    "phone": "6172364083"
  },
  {
    "yelp_id": "stockyard-restaurant-brighton-3",
    "name": "Stockyard Restaurant",
    "location": {
      "latitude": 42.357783,
      "longitude": -71.1486165
    },
    "address": [
      "135 Market St",
      "Brighton, MA 02135"
    ],
    "phone": "6177824700"
  },
  {
    "yelp_id": "porter-cafe-west-roxbury",
    "name": "Porter Cafe",
    "location": {
      "latitude": 42.2872963,
      "longitude": -71.1490402
    },
    "address": [
      "1723 Centre St",
      "West Roxbury",
      "West Roxbury, MA 02132"
    ],
    "phone": "6179422579"
  },
  {
    "yelp_id": "the-dugout-boston",
    "name": "The Dugout",
    "location": {
      "latitude": 42.349545,
      "longitude": -71.105995
    },
    "address": [
      "722 Commonwealth Ave",
      "Boston, MA 02215"
    ],
    "phone": "6172478656"
  },
  {
    "yelp_id": "coolidge-corner-clubhouse-brookline",
    "name": "Coolidge Corner Clubhouse",
    "location": {
      "latitude": 42.3432707,
      "longitude": -71.1227847
    },
    "address": [
      "307 Harvard St",
      "Coolidge Corner",
      "Brookline, MA 02446"
    ],
    "phone": "6175664948"
  },
  {
    "yelp_id": "grendels-den-restaurant-and-bar-cambridge",
    "name": "Grendel's Den Restaurant & Bar",
    "location": {
      "latitude": 42.372501,
      "longitude": -71.1209673
    },
    "address": [
      "89 Winthrop St",
      "Harvard Square",
      "Cambridge, MA 02138"
    ],
    "phone": "6174911160"
  },
  {
    "yelp_id": "atwoods-tavern-cambridge-2",
    "name": "Atwood's Tavern",
    "location": {
      "latitude": 42.3727493,
      "longitude": -71.0914536
    },
    "address": [
      "877 Cambridge St",
      "Cambridge, MA 02141"
    ],
    "phone": "6178642792"
  },
  {
    "yelp_id": "state-park-cambridge",
    "name": "State Park",
    "location": {
      "latitude": 42.3661738054722,
      "longitude": -71.0909571161469
    },
    "address": [
      "1 Kendall Sq",
      "Bldg 300, Lower Level",
      "Kendall Square/MIT",
      "Cambridge, MA 02139"
    ],
    "phone": "6178484355"
  },
  {
    "yelp_id": "wonder-bar-allston",
    "name": "Wonder Bar",
    "location": {
      "latitude": 42.3508867621422,
      "longitude": -71.1312194913626
    },
    "address": [
      "186 Harvard Ave",
      "Allston/Brighton",
      "Allston, MA 02134"
    ],
    "phone": "6173512665"
  },
  {
    "yelp_id": "saloon-somerville",
    "name": "Saloon",
    "location": {
      "latitude": 42.3956413269043,
      "longitude": -71.1216659545898
    },
    "address": [
      "255 Elm St",
      "Davis Square",
      "Somerville, MA 02144"
    ],
    "phone": "6176284444"
  },
  {
    "yelp_id": "the-muddy-charles-pub-at-mit-cambridge",
    "name": "The Muddy Charles Pub at MIT",
    "location": {
      "latitude": 42.3591766,
      "longitude": -71.0877228
    },